City_ID,City,Country,Max Temp,Current Description,Lat,Lng,Hotel Name
0,Tuktoyaktuk,CA,44.6,broken clouds,69.4541,-133.0374,End of The Road Ltd.
2,Thakurganj,IN,76.84,scattered clouds,26.45,88.1333,गुलमोहम्मद गोथरा बाबुलरेज़ा
3,Kodiak,US,51.31,clear sky,57.79,-152.4072,Best Western Kodiak Inn And Convention Center
4,Arraial Do Cabo,BR,75.16,broken clouds,-22.9661,-42.0278,Pousada Porto Praia
5,Bambanglipuro,ID,74.66,broken clouds,-7.95,110.2833,Puri Brata
6,Ushuaia,AR,47.86,heavy intensity rain,-54.8,-68.3,Albatros Hotel
8,Mataura,NZ,50.49,light rain,-46.1927,168.8643,Ellie's Villa
9,Bluff,NZ,50.81,broken clouds,-46.6,168.3333,Bluff Homestead - Guesthouse & Campervan Park
10,Busselton,AU,46.04,clear sky,-33.65,115.3333,Observatory Guest House
11,Archena,ES,74.07,clear sky,38.1163,-1.3004,Hotel La Parra
12,Hobart,AU,47.26,broken clouds,-42.8794,147.3294,Mantra on Collins Hobart
13,Bonoua,CI,76.62,scattered clouds,5.2741,-3.595,Hotel Bon Samaritian
14,San Cristobal,VE,78.98,broken clouds,7.7669,-72.225,Posada Villaven C.A.
16,Port Alfred,ZA,60.98,broken clouds,-33.5906,26.891,The Halyards Hotel
18,Avarua,CK,78.85,broken clouds,-21.2078,-159.775,Paradise Inn
20,Sai Buri,TH,75.99,overcast clouds,6.7013,101.6168,ร้าน​ เวดดิ้ง
26,Puerto Ayora,EC,76.96,broken clouds,-0.7393,-90.3518,Finch Bay Galapagos Hotel
28,Saint-Philippe,RE,63.99,clear sky,-21.3585,55.7679,"Chambres d'hôte ""La Trinité"""
29,Nabire,ID,74.84,overcast clouds,-3.3667,135.4833,Hotel Nusantara Nabire
30,Butaritari,KI,83.16,broken clouds,3.0707,172.7902,Isles Sunset Lodge
31,Rikitea,PF,73.89,clear sky,-23.1203,-134.9692,People ThankYou
32,Kaitangata,NZ,49.26,scattered clouds,-46.2817,169.8464,Kaitangata Motor Camp
33,Kapaa,US,80.58,light rain,22.0752,-159.319,Sheraton Kauai Coconut Beach Resort
34,Hermanus,ZA,56.89,clear sky,-34.4187,19.2345,Misty Waves Boutique Hotel
35,Orocue,CO,83.82,overcast clouds,4.7912,-71.3354,Hotel Brisas de San Miguel
36,Lashio,MM,67.39,overcast clouds,22.9333,97.75,Hotel CF Lashio - Burmese Only
37,Otane,NZ,55.38,scattered clouds,-39.8833,176.6333,Ludlow Farmstay
38,Port-Gentil,GA,78.76,scattered clouds,-0.7193,8.7815,Fengshui Residence
39,Imbituba,BR,73.29,moderate rain,-28.24,-48.6703,Praia Hotel Imbituba
42,Maldonado,UY,62.22,overcast clouds,-34.6667,-54.9167,La Cimarrona
43,Victoria,HK,84.33,few clouds,22.2855,114.1577,Mini Hotel Central
44,Mount Isa,AU,73.17,clear sky,-20.7333,139.5,ibis Styles Mt Isa Verona
45,Punta Arenas,CL,46.51,light intensity shower rain,-53.15,-70.9167,Hotel Dreams Del Estrecho
46,Muana,BR,79.81,overcast clouds,-1.5283,-49.2167,Pousada Bella do Marajó
47,Chuy,UY,61.5,overcast clouds,-33.6971,-53.4616,Nuevo Hotel Plaza
48,Cape Town,ZA,58.12,light rain,-33.9258,18.4232,Southern Sun Waterfront Cape Town
49,Luganville,VU,77.25,overcast clouds,-15.5333,167.1667,The Espiritu Hotel
51,Dunedin,NZ,55.8,broken clouds,-45.8742,170.5036,Scenic Hotel Southern Cross
53,Hofn,IS,50.45,broken clouds,64.2539,-15.2082,Hótel Höfn
54,Hilo,US,84.27,light rain,19.7297,-155.09,Hilo Hawaiian Hotel
55,Vila Velha,BR,75.15,scattered clouds,-20.3297,-40.2925,Quality Suites Vila Velha
56,Japura,ID,70.11,overcast clouds,-0.3167,102.35,Rumah mbah Jamah
57,Alta Floresta,BR,86.04,clear sky,-9.8756,-56.0861,Floresta Amazonica Hotel
58,Bambous Virieux,MU,70.05,scattered clouds,-20.3428,57.7575,Casa Tia Villa
59,Atuona,PF,78.15,scattered clouds,-9.8,-139.0333,Villa Enata
61,Mahebourg,MU,70.09,scattered clouds,-20.4081,57.7,Shandrani Beachcomber Resort & Spa
62,Honiara,SB,81.5,overcast clouds,-9.4333,159.95,Heritage Park Hotel
63,East London,ZA,61.81,few clouds,-33.0153,27.9116,Tu Casa
64,Istisu,AZ,54.27,clear sky,40.9457,48.0738,Shirvan Resort (Halal)
65,Haines Junction,CA,53.55,broken clouds,60.7522,-137.5108,Parkside Inn
66,Vangaindrano,MG,63.09,light rain,-23.35,47.6,Hotel Fanilo
69,Metu,ET,58.24,overcast clouds,8.3,35.5833,Darfn hotel
70,Praia Da Vitoria,PT,70.05,scattered clouds,38.7333,-27.0667,Hotel Branco I
71,Puerto Baquerizo Moreno,EC,72.59,broken clouds,-0.9,-89.6,Hotel los Algarrobos
72,Orlik,RU,44.74,overcast clouds,52.5178,99.825,Gostevoy Dom Mini Gostinitsa
73,Vaini,TO,75.36,few clouds,-21.2,-175.2,Keleti Beach Resort
74,Thongwa,MM,78.96,overcast clouds,16.7619,96.5278,U Poe Sann
75,Port Elizabeth,ZA,57.49,scattered clouds,-33.918,25.5701,39 On Nile Guest House
78,Ambilobe,MG,73.29,overcast clouds,-13.2,49.05,Hôtel & Restaurant DIANA Ambilobe
79,Poum,NC,72.37,clear sky,-20.2333,164.0167,Gîte kajeon
80,Jamestown,US,76.32,clear sky,42.097,-79.2353,Hampton Inn & Suites Jamestown
81,Abidjan,CI,76.96,few clouds,5.3094,-4.0197,ibis Abidjan Plateau
82,Faya,SA,71.71,broken clouds,18.3851,42.4509,املاك خالد الشعشوع
84,Nosy Varika,MG,66.33,light rain,-20.5833,48.5333,Hotel Volazara
85,Bredasdorp,ZA,52.92,clear sky,-34.5322,20.0403,Bredasdorp Country Manor
86,Torbay,CA,58.75,moderate rain,47.6666,-52.7314,Gallows Cove
89,Giddalur,IN,80.69,overcast clouds,15.35,78.9167,Shivaji Lodge
90,Ponta Do Sol,PT,74.03,overcast clouds,32.6667,-17.1,Hotel do Campo
91,Alamosa,US,75.18,few clouds,37.4695,-105.87,Best Western Alamosa Inn
92,New Norfolk,AU,46.92,broken clouds,-42.7826,147.0587,The Shingles Riverside Cottages
93,Geraldton,AU,55.81,clear sky,-28.7667,114.6,Broadwater Mariner Resort
94,Grand Gaube,MU,70.2,overcast clouds,-20.0064,57.6608,Veranda Paul et Virginie Hotel & Spa
95,Trat,TH,73.56,light rain,12.5,102.5,สวนหนิง-อัศ
96,Vila Franca Do Campo,PT,68.41,broken clouds,37.7167,-25.4333,Pestana Bahia Praia
97,Bend,US,59.49,broken clouds,44.0582,-121.3153,Fairfield Inn & Suites by Marriott Bend Downtown
98,Airai,TL,58.14,scattered clouds,-8.9266,125.4092,Juvinal Martin
99,Kruisfontein,ZA,51.89,scattered clouds,-34.0033,24.7314,Oyster Bay House Rental
101,Meulaboh,ID,73.0,moderate rain,4.1363,96.1285,Kost Pria
102,Boyolangu,ID,73.33,scattered clouds,-8.1181,111.8935,Yos ega cv
103,Bereda,ES,55.99,broken clouds,43.2686,-7.5406,Pazo de Verdes
106,Kavieng,PG,82.56,scattered clouds,-2.5744,150.7967,Nusa Island Retreat
108,Coolum Beach,AU,69.33,clear sky,-26.5333,153.1,Palmer Coolum Resort
109,Kisangani,CD,68.38,light rain,0.5167,25.2,Grand Ramela Hotel
110,Faanui,PF,77.77,light rain,-16.4833,-151.75,Bora-Bora Pearl Beach Resort & Spa
111,Chichihualco,MX,75.18,overcast clouds,17.6833,-99.65,Hotel Casa Blanca
112,San Quintin,MX,71.94,clear sky,30.4833,-115.95,Don Eddie's Sport Fishing Center
113,Lagoa,PT,68.65,broken clouds,39.05,-27.9833,Casa Das Faias
116,Peque,CO,70.5,overcast clouds,7.0212,-75.9093,Hotel Rodizzio
117,Vestmannaeyjar,IS,50.16,overcast clouds,63.4427,-20.2734,Glamping & Camping
120,Cochrane,CA,65.39,few clouds,51.1834,-114.4687,Days Inn & Suites by Wyndham Cochrane
121,Nannilam,IN,81.34,broken clouds,10.8793,79.6106,RAJA RANI LODGE
123,Lebu,CL,51.12,clear sky,-37.6167,-73.65,Hostal Las Lilas
125,Flinders,AU,67.05,clear sky,-34.5833,150.8552,Shellharbour Resort & Conference Centre
126,Kuching,MY,75.42,light rain,1.55,110.3333,The Ranee Boutique Suites
127,Saint Albans,GB,60.31,scattered clouds,51.75,-0.3333,Quality Hotel St. Albans
130,Grindavik,IS,48.67,light intensity drizzle rain,63.8424,-22.4338,Northern Light Inn & Max's Restaurant
133,Kenitra,MA,69.84,broken clouds,34.261,-6.5802,Bienvenue chez vous
134,Teguise,ES,70.02,scattered clouds,29.0605,-13.564,B&B La Casona de Nazaret
135,Phuntsholing,BT,75.6,broken clouds,26.8516,89.3884,Hotel White House
136,Santa Isabel Do Rio Negro,BR,79.47,broken clouds,-0.4139,-65.0192,Hotel GSA
138,Rio Grande,BR,66.31,heavy intensity rain,-32.035,-52.0986,Hotel Atlântico Rio Grande
139,Carnarvon,AU,59.07,clear sky,-24.8667,113.6333,Hospitality Carnarvon
140,Georgetown,MY,80.53,scattered clouds,5.4112,100.3354,Cititel Penang
141,Yellowknife,CA,48.72,broken clouds,62.456,-114.3525,The Explorer Hotel
143,Apomu,NG,71.82,light rain,7.3333,4.1833,"Albirr Charity Foundation, Islamiyyah, Ikire"
145,Changping,CN,62.24,light rain,40.2186,116.2197,Huachang Hotel
146,Kalmunai,LK,79.75,broken clouds,7.4167,81.8167,VS Villa
147,College,US,46.65,broken clouds,64.8569,-147.8028,Pike's Waterfront Lodge
148,Eyl,SO,78.01,broken clouds,7.9803,49.8164,Amiin Hotel
149,Turan,VN,77.05,scattered clouds,16.0678,108.2208,Sun River Hotel
150,Gazanjyk,TM,69.87,clear sky,39.2446,55.5154,Railway motel
151,Antofagasta,CL,58.28,scattered clouds,-23.65,-70.4,"Holiday Inn Express Antofagasta, an IHG Hotel"
152,Dongsheng,CN,54.77,overcast clouds,39.8161,109.9776,Crowne Plaza Ordos
153,Moyale,KE,74.26,scattered clouds,3.5167,39.0584,La Tahzan Guest House
154,Mar Del Plata,AR,57.22,overcast clouds,-38.0023,-57.5575,Gran Hotel Mar del Plata
155,Belyy Yar,RU,51.69,clear sky,53.6039,91.3903,Pasportnyy Stol
156,Tahta,EG,84.52,clear sky,26.7693,31.5021,El Salam Hotel
157,Bengkulu,ID,73.47,overcast clouds,-3.8004,102.2655,Grage Hotel Bengkulu
158,Kihei,US,84.97,scattered clouds,20.785,-156.4656,Maui Sunset
159,Tadpatri,IN,83.37,overcast clouds,14.9167,78.0167,VASAVI TIFFIN CENTRE
161,Fort Nelson,CA,54.99,broken clouds,58.8053,-122.7002,The Fort Nelson Hotel
162,Souillac,MU,70.18,scattered clouds,-20.5167,57.5167,Shanti Maurice Resort & Spa
164,Nelson Bay,AU,59.95,clear sky,-32.7167,152.15,Mantra Nelson Bay
165,Kloulklubed,PW,83.44,overcast clouds,7.0419,134.2556,Storyboard Beach Resort
166,Akdepe,TM,57.29,clear sky,42.0551,59.3788,Мой дом
168,Sorland,NO,52.23,overcast clouds,67.667,12.6934,Sjybrygga fiskecamp
169,Coihaique,CL,50.61,scattered clouds,-45.5752,-72.0662,Diego De Almagro Coyhaique
170,Mogadishu,SO,77.18,clear sky,2.0371,45.3438,Hotel Juba
172,Severo-Kurilsk,RU,50.0,overcast clouds,50.6789,156.125,Kak Doma
173,Festus,US,85.53,overcast clouds,38.2206,-90.396,"Holiday Inn Express & Suites Festus - South St. Louis, an IHG Hotel"
174,Sanary-Sur-Mer,FR,67.95,clear sky,43.1178,5.8001,Résidence Pierre et Vacances Les Rivages de Coudoulière
176,Palmer,US,73.33,few clouds,42.1584,-72.3287,Wedgewood Motel
177,Kirakira,SB,82.22,light rain,-10.4544,161.9205,SanBiz Lodge
178,Ancud,CL,51.42,scattered clouds,-41.8697,-73.8203,Hotel Arena Gruesa
179,Rongcheng,CN,70.23,light rain,30.634,117.8517,Shell Shandong Liaocheng Development District South Huangshan Road Hotel
180,Kaeo,NZ,64.33,scattered clouds,-35.1,173.7833,Bushido Lodge
181,Guia De Isora,ES,70.23,scattered clouds,28.2115,-16.7795,La Vista Pension
182,Leland,US,84.45,clear sky,34.2563,-78.0447,Leland Station
183,Sutton,GB,61.32,overcast clouds,51.35,-0.2,"Holiday Inn London - Sutton, an IHG Hotel"
184,Thompson,CA,53.76,overcast clouds,55.7435,-97.8558,Burntwood Hotel
185,Shenjiamen,CN,77.52,few clouds,29.9576,122.298,Jinjiang Inn Zhoushan Putuo Shenjiamen
186,Batemans Bay,AU,64.2,clear sky,-35.7167,150.1833,Batemans Bay Marina Resort
189,Hithadhoo,MV,81.66,overcast clouds,-0.6,73.0833,Scoop Guest House
190,Nishihara,JP,77.05,few clouds,26.1842,127.7558,Minshuku Agaihama
191,Kuytun,RU,46.8,overcast clouds,54.3419,101.5036,Gostinitsa Tsentral'naya
193,Pilar,BR,76.93,broken clouds,-9.5972,-35.9567,Pousada e churrascaria Manguaba
194,Castro,BR,65.7,broken clouds,-24.7911,-50.0119,CHACARA BAILLY
196,Goderich,CA,76.03,clear sky,43.7501,-81.7165,Harmony Inn
197,Bethel,US,74.19,clear sky,41.3712,-73.414,Courtyard by Marriott Danbury
198,Paoua,CF,70.05,light rain,7.2427,16.4406,Quartier Paoua Elien
199,Camacha,PT,70.56,broken clouds,33.0833,-16.3333,Hotel Porto Santo & Spa
200,Constitucion,CL,53.65,clear sky,-35.3333,-72.4167,Hotel Boutique Las Azucenas
202,Mataram,ID,77.81,scattered clouds,-8.5833,116.1167,Hotel Santika Mataram
203,Da Lat,VN,58.78,overcast clouds,11.9465,108.4419,Khách Sạn Dragon King I
204,Rawson,AR,55.08,broken clouds,-43.3002,-65.1023,Hosteria Sampedro
205,San Rafael,AR,63.28,clear sky,-34.6177,-68.3301,Hotel San Rafael
207,Porto Novo,BJ,80.42,broken clouds,6.4965,2.6036,Tour Eiffel Hotel Benin
210,Nampula,MZ,64.35,clear sky,-15.1165,39.2666,BUTIK Hotel
212,Ambanja,MG,72.36,moderate rain,-13.6833,48.45,Hotel Salama and Fast Food
213,Hualmay,PE,63.36,few clouds,-11.0964,-77.6139,Hotel Villa Kitzia Huacho
214,Yulara,AU,62.44,broken clouds,-25.2406,130.9889,Desert Gardens Hotel - Ayers Rock Resort
216,Monrovia,LR,76.86,light rain,6.3005,-10.7969,Sunset Inn
217,Shintomi,JP,69.12,few clouds,32.0785,131.4723,ホテルスイート
219,Tucupita,VE,79.75,overcast clouds,9.0622,-62.051,Hotel Tucupita Su​ite C.A.
220,Cubatao,BR,87.53,broken clouds,-23.895,-46.4253,Hotel do Farol
222,La Grande,US,61.56,moderate rain,45.3246,-118.0877,Travelodge by Wyndham La Grande
223,Pratapgarh,IN,71.73,broken clouds,24.0333,74.7833,Ratna Hotel
224,Lamu,KE,77.22,few clouds,-2.2717,40.902,Lamu House
225,Neftcala,AZ,71.35,clear sky,39.3742,49.2472,Otel restoran
226,Sao Filipe,CV,80.06,overcast clouds,14.8961,-24.4956,Hotel Xaguate
227,Liverpool,GB,55.35,few clouds,53.4106,-2.9779,Premier Inn Liverpool City Centre (Moorfields) hotel
228,Virginia Beach,US,82.42,broken clouds,36.8529,-75.978,Hilton Virginia Beach Oceanfront
229,Micoud,LC,84.13,few clouds,13.8167,-60.9,Zamacà
230,Sitka,US,55.29,broken clouds,57.0531,-135.33,Westmark Sitka
231,High Prairie,CA,52.9,overcast clouds,55.4334,-116.4858,Royal Star Motor Inn
232,Kalianget,ID,78.3,scattered clouds,-7.05,113.9333,Pesanggrahan Garam
233,Redmond,US,66.85,overcast clouds,47.674,-122.1215,Seattle Marriott Redmond
234,Acari,PE,65.53,broken clouds,-15.4311,-74.6158,HOSPEDAJE XIMENA
235,Jimma,ET,57.7,few clouds,7.6667,36.8333,Jimma Central Hotel
237,Norrtalje,SE,51.03,overcast clouds,59.758,18.705,Norrtälje Vandrarhem Hvilan
238,Port Blair,IN,79.97,light rain,11.6667,92.75,"Welcomhotel By ITC Hotels, Bay Island, Port Blair"
239,Chicama,PE,61.34,few clouds,-7.8447,-79.1469,Balihai Bungalows
240,Yeppoon,AU,64.18,clear sky,-23.1333,150.7333,Villa Mar Colina
241,Cidreira,BR,66.76,moderate rain,-30.1811,-50.2056,Hotel Castelo
242,Ribeira Grande,PT,69.78,scattered clouds,38.5167,-28.7,Quinta da Meia Eira
243,Bubaque,GW,81.01,moderate rain,11.2833,-15.8333,"Casa Dora, Bubaque"
244,Katsuura,JP,69.91,overcast clouds,35.1333,140.3,Katsuura Hotel Mikazuki
245,Padang,ID,75.25,overcast clouds,-0.9492,100.3543,Mercure Padang
246,Tete,MZ,68.09,clear sky,-16.1564,33.5867,Zambeze Paraíso Misterioso
247,Santiago Del Estero,AR,85.8,overcast clouds,-27.7951,-64.2615,Apartamentos Castelli 90
250,Mineiros,BR,83.91,few clouds,-17.5694,-52.5511,Pilões Palace Hotel
251,Umm Lajj,SA,83.89,clear sky,25.0213,37.2685,Moon light Furnished Units
252,Sanming,CN,76.3,clear sky,26.2486,117.6186,Sanming Huangting Lijing Hotel
253,Petropavlovsk-Kamchatskiy,RU,48.79,light intensity shower rain,53.0452,158.6483,The Hotel Petropavlovsky
254,Saint-Georges,GD,87.48,few clouds,12.0564,-61.7485,Radisson Grenada Beach Resort
255,Edgewater,US,84.0,light rain,28.9889,-80.9023,Islander Beach Resort
258,Palembang,ID,73.22,light rain,-2.9167,104.7458,ASTON Palembang Hotel & Conference Center
259,Kosonsoy,UZ,61.36,clear sky,41.2561,71.5508,"Гостиница ""Goldstar'"
261,Grand Forks,US,80.33,smoke,47.9417,-97.4337,Warrior Inn
262,Lorengau,PG,83.52,overcast clouds,-2.0226,147.2712,Lorengau Harbourside Hotel
265,Raudeberg,NO,55.87,overcast clouds,61.9875,5.1352,Nordre Silda.
266,Zalantun,CN,44.47,light rain,48.0,122.7167,GreenTree Alliance Hulunbeier Zhalantun Railway Station Hotel
267,Yining,CN,71.28,light rain,29.0361,114.5636,Xiushui Hotel
268,Hasaki,JP,66.6,scattered clouds,35.7333,140.8333,Hotel Sunrise Choshi
269,Chantilly,US,81.32,few clouds,38.8943,-77.4311,Hampton Inn Washington-Dulles Int'l Airport South
270,Salsomaggiore Terme,IT,61.92,broken clouds,44.8148,9.9796,Hotel Ferrari
272,Kathu,TH,76.82,overcast clouds,7.9178,98.3332,Novotel Phuket Resort
273,Ciudad Del Maiz,MX,78.4,scattered clouds,22.4,-99.6,Hotel Casona del General
275,Sedalia,US,87.85,few clouds,38.7045,-93.2283,Best Western State Fair Inn
276,Hambantota,LK,79.14,clear sky,6.1241,81.1185,Bungalow 63
278,Laguna,US,83.21,clear sky,38.421,-121.4238,"Holiday Inn Express & Suites Elk Grove Central - Hwy 99, an IHG Hotel"
279,Gold Coast,AU,69.87,scattered clouds,-28.0,153.4333,Mantra Towers of Chevron Surfers Paradise
280,Augusta,DE,55.6,overcast clouds,48.3667,10.8833,Hotel am Rathaus
281,Svetlyy,RU,50.05,overcast clouds,54.675,20.1347,"Gostinitsa-Kafe, Alena"
283,Gushikawa,JP,77.0,clear sky,26.3544,127.8686,Kirari Guest House
284,Guerrero Negro,MX,75.49,clear sky,27.9769,-114.0611,"Casa Laguna, Bed & Breakfast"
286,Thunder Bay,CA,82.38,broken clouds,48.4001,-89.3168,Victoria Inn Hotel and Convention Centre
287,Sambava,MG,70.47,light rain,-14.2667,50.1667,Melrose
288,Quatre Cocos,MU,69.91,overcast clouds,-20.2078,57.7625,Sunrise Attitude Hotel
289,Nohar,IN,85.06,few clouds,29.1833,74.7667,Hotel Eva Inn
290,Hirara,JP,77.27,broken clouds,24.8,125.2833,Hotel Atoll Emerald Miyakojima
293,Touros,BR,79.7,overcast clouds,-5.1989,-35.4608,INN NEW HORIZON
295,Tiarei,PF,82.42,broken clouds,-17.5333,-149.3333,Le Rocher de Tahiti
296,Ketchikan,US,55.87,light rain,55.3422,-131.6461,Snow's Cove Lodge
297,Vicente Guerrero,MX,64.06,overcast clouds,19.1194,-98.1708,Churros Inn
299,Rafraf,TN,75.51,clear sky,37.1904,10.1837,Les Jardins de la Mer Ghar el Melh
301,Saldanha,ZA,57.25,overcast clouds,-33.0117,17.9442,Blue Bay Lodge
302,Lethem,GY,84.25,light intensity shower rain,3.3803,-59.7968,Savannah Inn
304,La Ronge,CA,57.45,broken clouds,55.1001,-105.2842,Northland Motor Hotel
305,Ucluelet,CA,61.05,scattered clouds,48.9329,-125.5528,Black Rock Oceanfront Resort
306,Kupang,ID,77.58,scattered clouds,-10.1667,123.5833,Hotel On The Rock by Prasanthi
307,Ixtapa,MX,80.22,overcast clouds,20.7,-105.2,Hotel Plaza Providencia
308,Sydney Mines,CA,61.81,scattered clouds,46.2367,-60.2177,At The Harbourfront B&B Inc
310,Peleduy,RU,44.28,overcast clouds,59.6289,112.7406,Гостиница «Уют»
312,Manacor,ES,71.51,scattered clouds,39.5696,3.2096,Hotel Can Guixa
313,Barraute,CA,68.27,clear sky,48.4335,-77.6328,Auberge La Fille d'à côté
315,Huron,US,84.69,scattered clouds,41.1501,-82.5499,Meadow Brook Mobile Estates
317,Nouadhibou,MR,78.78,clear sky,20.931,-17.0347,El Medina
318,Zhuhai,CN,82.18,light rain,22.2769,113.5678,Nanyang Seascape Hotel Zhuhai Hotel
319,Cayenne,GF,84.09,few clouds,4.9333,-52.3333,Hôtel Le Dronmi
320,Ploemeur,FR,58.95,clear sky,47.7333,-3.4333,Best Western Plus Hotel Les Rives Du Ter
321,Fortuna,US,72.43,scattered clouds,40.5982,-124.1573,Super 8 by Wyndham Fortuna
325,Abaete,BR,85.23,broken clouds,-19.16,-45.4458,Hotel Millenium
327,Solnechnyy,RU,48.67,clear sky,50.7214,136.6319,Hotel complex Pastoral
328,Saint-Pierre,RE,64.08,broken clouds,-21.3393,55.4781,Lindsey Hôtel
329,Slave Lake,CA,49.98,overcast clouds,55.2834,-114.769,Super 8 by Wyndham Slave Lake AB
330,Vanderhoof,CA,60.19,overcast clouds,54.0166,-124.0198,Vanderhoof Inn
331,Esperance,AU,51.64,broken clouds,-33.8667,121.9,Hospitality Esperance
333,Dingle,PH,75.0,overcast clouds,10.9995,122.6711,SEGAYA PROPERTY
334,Sao Sebastiao Do Paraiso,BR,84.36,overcast clouds,-20.9169,-46.9914,BM Hotel
335,Humberto De Campos,BR,78.8,broken clouds,-2.5983,-43.4611,Pousada do Cabeça
336,Huarmey,PE,64.4,clear sky,-10.0681,-78.1522,Hotel Miramar
337,Zhangjiakou,CN,55.98,overcast clouds,40.81,114.8794,Shell Zhangjiakou City Qiaodong District Ginza Hotel
339,Taltal,CL,61.27,few clouds,-25.4,-70.4833,Residencial Karime
340,Bairiki,KI,84.2,few clouds,1.3292,172.9752,Tarawa Boutique Hotel
341,Richards Bay,ZA,65.84,broken clouds,-28.783,32.0377,BON Hotel Waterfront Richards Bay
342,Cockburn Town,TC,85.96,scattered clouds,21.4612,-71.1419,Osprey Beach Hotel
343,Kudahuvadhoo,MV,82.04,overcast clouds,2.6708,72.8944,Niyama Private Islands Maldives
344,Klaksvik,FO,50.92,scattered clouds,62.2266,-6.589,Airbnb rooms
345,Necochea,AR,55.04,broken clouds,-38.5473,-58.7368,dyd -mar Hotel
346,Tabou,CI,77.85,broken clouds,4.423,-7.3528,hotêl doufoulougou
347,Elat,IL,85.84,clear sky,29.5581,34.9482,Club Hotel Eilat
348,Joetsu,JP,68.41,scattered clouds,37.1483,138.2364,Joetsu Sun Plaza Hotel
349,Ballina,AU,63.95,scattered clouds,-28.8667,153.5667,Ramada Hotel & Suites by Wyndham Ballina Byron
351,Sukhumi,GE,67.87,overcast clouds,43.0033,41.0153,Ritsa Hotel
354,Paducah,US,79.61,scattered clouds,37.0834,-88.6001,"Holiday Inn Paducah Riverfront, an IHG Hotel"
355,Uvaly,CZ,53.17,overcast clouds,50.0739,14.7308,Da Antonio Residence
356,Yanam,IN,77.0,heavy intensity rain,16.7333,82.2167,The Regency Hotel
358,Itape,PY,87.53,overcast clouds,-25.85,-56.6167,Santuario Diocesano Virgen Del Paso
359,Ula,IN,82.38,thunderstorm with rain,22.7225,88.5556,Bachhawat Estate
362,Oistins,BB,86.09,few clouds,13.0667,-59.5333,Butterfly Beach Hotel
363,Bekovo,RU,47.53,light rain,52.4663,43.712,Plyazh
364,Iwanai,JP,61.68,broken clouds,42.9744,140.5089,いわない高原ホテル
365,Bom Jesus,BR,84.88,broken clouds,-9.0744,-44.3586,Hotel Brasão & Floricultura Bella Flor
366,Lata,PT,63.07,clear sky,40.1629,-8.3327,Casa Maquia
367,Thayetmyo,MM,74.82,overcast clouds,19.3167,95.1833,Htarwaya Thitsar Guest House
368,Hella,NO,49.87,clear sky,67.2,14.4333,Kobbosen
369,Mount Gambier,AU,44.51,light intensity shower rain,-37.8333,140.7667,The Commodore
370,Kumbo,CM,59.11,scattered clouds,6.2,10.6667,Western Inn Resort
372,Bensonville,LR,74.59,light rain,6.4461,-10.6125,Moinga
373,Lidzbark Warminski,PL,46.15,overcast clouds,54.1259,20.5795,Hotel Krasicki
374,Tocopilla,CL,63.54,broken clouds,-22.092,-70.1979,Hotel Galvarino
375,Neiafu,TO,79.48,light rain,-18.65,-173.9833,Mystic Sands Beachfront Accommodation
376,Holsted,DK,54.21,overcast clouds,55.5109,8.9187,Den gamle Kostald Bed & Breakfast
377,Whitianga,NZ,57.02,broken clouds,-36.8333,175.7,Beachside Resort Whitianga
378,Port Hedland,AU,64.45,clear sky,-20.3167,118.5667,The Esplanade Hotel
379,Fairbanks,US,46.31,broken clouds,64.8378,-147.7164,Westmark Fairbanks Hotel & Conference Center
380,Eureka,US,72.68,broken clouds,40.8021,-124.1637,Eureka Inn Trademark By Wyndham
381,Oliveira Do Hospital,PT,59.25,clear sky,40.3618,-7.8601,Casa da Bezerra
382,Phuket,TH,77.22,scattered clouds,8.0,98.25,The Surin
383,Someshwar,IN,76.37,overcast clouds,13.5,75.0667,Kadinamane Homestay
384,Wajid,SO,74.64,scattered clouds,3.8093,43.2471,xamdihotelresturant114
387,Olafsvik,IS,48.4,light rain,64.8945,-23.7142,Hotel Olafsvik
388,Kavaratti,IN,81.45,overcast clouds,10.5669,72.642,Hotels in Lakshadweep Islands
389,Byron Bay,AU,72.05,clear sky,-28.65,153.6167,Backpackers Inn on the Beach
390,Bandarbeyla,SO,79.29,overcast clouds,9.4942,50.8122,JABIR HOTEL
391,Ferzikovo,RU,44.24,light rain,54.5191,36.7567,Gostinitsa
392,Norman Wells,CA,50.04,broken clouds,65.282,-126.8329,Heritage Hotel
393,Freeport,US,78.26,clear sky,40.6576,-73.5832,The Freeport Inn and Marina
394,Husavik,IS,48.11,overcast clouds,66.0449,-17.3389,Bjarnabúð
395,Hoghilag,RO,54.97,scattered clouds,46.2333,24.6167,Casa Elixias
396,Seoul,KR,69.24,clear sky,37.5683,126.9778,롯데호텔 서울
397,Senneterre,CA,68.22,clear sky,48.3835,-77.2328,Motel Senabi
400,Sao Joao Da Barra,BR,75.29,clear sky,-21.6403,-41.0511,Pousada Porto De Canoas
401,Asfi,MA,69.31,scattered clouds,32.2994,-9.2372,Hôtel Abda
402,Kaoma,ZM,73.6,clear sky,-14.7833,24.8,KAOMA AIRPORT
403,Korla,CN,72.5,clear sky,41.7597,86.1469,Gulisitan Hotel
405,Coos Bay,US,70.32,clear sky,43.3665,-124.2179,Best Western Holiday Hotel
408,Mayo,US,82.11,clear sky,38.8876,-76.5119,Resorts Resource Group International
409,Xining,CN,44.31,clear sky,36.6167,101.7667,Super Leisure Hotel
410,Boke,GN,75.7,overcast clouds,10.9409,-14.2967,Hôtel Rio Nunez - Boké
411,Roma,US,71.74,few clouds,43.2128,-75.4557,Wingate By Wyndham Rome
413,Northam,GB,59.67,clear sky,51.0333,-4.2167,Durrant House Hotel
414,Shaowu,CN,74.95,clear sky,27.3409,117.4831,Yijie Express Hotel
416,Alofi,NU,75.09,light rain,-19.0595,-169.9187,Taloa Heights
417,Morgan City,US,87.8,clear sky,29.6994,-91.2068,Hampton Inn & Suites Morgan City
418,Luau,AO,72.23,broken clouds,-10.7073,22.2247,Casa- Bernardo Cândido
419,Kenai,US,56.03,clear sky,60.5544,-151.2583,Aspen Extended Stay Suites
420,Poladpur,IN,73.98,overcast clouds,17.9802,73.466,Balaji Resort
421,Lufilufi,WS,85.78,few clouds,-13.8745,-171.5986,Leuaina Beach Resort and Spa
422,Carutapera,BR,78.93,broken clouds,-1.195,-46.02,Lidera
423,San Jose,US,82.27,broken clouds,37.3394,-121.895,The Westin San Jose
424,Altay,CN,61.14,overcast clouds,47.8667,88.1167,Jinqiao Hotel
425,Ulladulla,AU,66.87,clear sky,-35.35,150.4667,Sandpiper Motel
426,Visnes,NO,56.57,clear sky,59.3556,5.2242,Park Inn Haugesund Airport
427,Kieta,PG,81.52,light rain,-6.2167,155.6333,Uruna Bay Retreat
431,Yingcheng,CN,66.25,light rain,30.95,113.55,Yingcheng Hotel
432,Vanimo,PG,78.87,moderate rain,-2.6741,141.3028,Vahmoneh Lodge Vanimo
433,Teknaf,BD,76.96,overcast clouds,20.8624,92.3058,Forestry Guesthouse
434,Dubbo,AU,46.53,clear sky,-32.25,148.6167,Comfort Inn Blue Lagoon
435,Zaragoza,ES,64.85,clear sky,41.6561,-0.8773,Hotel Goya
436,Kemin,KG,54.54,clear sky,42.7846,75.6892,Hotel Kok-Oirok
437,Mackenzie,CA,50.22,overcast clouds,55.2999,-123.1698,Hilton Shop
439,Baiao,BR,80.08,overcast clouds,-2.7906,-49.6717,Hotel Eurosono
440,Karratha,AU,74.19,clear sky,-20.7377,116.8463,ibis Styles Karratha
443,Albanel,CA,62.08,broken clouds,48.8832,-72.4487,Camping municipal d'Albanel
444,Esperantina,BR,85.01,broken clouds,-3.9017,-42.2336,Pousada Recanto Das Aguas
445,Inhambane,MZ,66.34,clear sky,-23.865,35.3833,Oceano
447,Sauce,UY,66.13,moderate rain,-34.6469,-56.0628,Residencial despertares
450,Samarai,PG,78.71,light rain,-10.6167,150.6667,Nuli Sapi
451,Sao Felix Do Xingu,BR,83.46,broken clouds,-6.6447,-51.995,Rio Xingu Camping
452,Albury,AU,54.01,light rain,-36.0833,146.9167,Albury Georgian Motel & Suites
453,Sokoto,NG,77.11,light rain,13.0609,5.239,Shukura Coral Hotel
455,Alghero,IT,69.89,clear sky,40.5589,8.3181,Villa Las Tronas Hotel & Spa
456,Bayeux,BR,77.63,few clouds,-7.125,-34.9322,Infinity Motel
457,Tongliao,CN,53.42,moderate rain,43.6125,122.2653,Meirujia Hotel
458,Chocen,CZ,51.12,few clouds,50.0016,16.223,Hotel Garni Michael
459,Xai-Xai,MZ,63.01,clear sky,-25.0519,33.6442,Complexo da Familia
460,Asyut,EG,84.38,clear sky,27.181,31.1837,Florence Hotel Assiut
462,Kutum,SD,79.59,scattered clouds,14.2,24.6667,Dibbo areaمنطقة دبو
463,Sungairaya,ID,77.5,overcast clouds,0.7,108.9,Mess P.Milu
464,Luang Prabang,LA,71.26,overcast clouds,19.8856,102.1347,Villa Oasis
465,Tchaourou,BJ,73.18,broken clouds,8.8865,2.5975,SAFIR HOTEL
466,Vestmanna,FO,49.12,mist,62.1564,-7.1664,Budget Guesthouse Borgustova
467,Moose Factory,CA,73.4,broken clouds,51.2585,-80.6094,Moosonee Lilypad
468,Zonguldak,TR,58.17,clear sky,41.25,31.8333,Süleyman Tez Ev
469,Carballo,ES,61.9,broken clouds,43.213,-8.691,Pazo do Souto
470,Naron,ES,63.03,broken clouds,43.5167,-8.1528,Marcial
471,North Bend,US,70.25,clear sky,43.4065,-124.2243,Red Lion Hotel Coos Bay
472,Minsk,BY,44.35,overcast clouds,53.9,27.5667,Minsk Hotel
476,Srandakan,ID,74.82,broken clouds,-7.9386,110.2506,Puri Brata
478,Nago,JP,77.85,broken clouds,26.5881,127.9761,Hotel Yugaf Inn Okinawa
479,Morehead,US,74.98,overcast clouds,37.2711,-87.1764,CCI Express Inn
480,Caravelas,BR,72.48,scattered clouds,-17.7125,-39.2481,Pousada dos Navegantes
481,Havelock,US,84.43,scattered clouds,34.8791,-76.9013,Sherwood Motel
482,Frontignan,FR,66.34,few clouds,43.4485,3.754,Domain Selhac: Cottages in Frontignan
483,Wasilla,US,57.94,clear sky,61.5814,-149.4394,Alaska's Select Inn Wasilla
484,Olga,RU,54.88,scattered clouds,43.7444,135.2892,Gostinitsa Rosmorport.
485,Valparaiso,CL,62.24,scattered clouds,-33.0393,-71.6273,Hotel Ultramar
486,Half Moon Bay,US,80.89,few clouds,37.4636,-122.4286,"The Ritz-Carlton, Half Moon Bay"
487,Lazaro Cardenas,MX,85.66,broken clouds,17.9583,-102.2,quinta antigua
488,Dolores,AR,57.9,overcast clouds,-36.3132,-57.6792,Apart Hotel - Arianos
492,Marawi,PH,65.64,overcast clouds,7.9986,124.2928,Derogongan Residence
493,Moyamba,SL,73.8,overcast clouds,8.1667,-12.4333,Sarah Jalloh Guest House
494,Garissa,KE,74.35,clear sky,-0.4536,39.6401,Sharif Plaza Hotel
495,Praia,CV,79.34,few clouds,14.9215,-23.5087,LT Aparthotel
496,Bhadra,IN,83.44,clear sky,29.1167,75.1667,Hotel Ganpati
499,Angoche,MZ,70.88,scattered clouds,-16.2325,39.9086,Guest House HESADA
500,Portland,US,67.73,broken clouds,45.5234,-122.6762,Embassy Suites by Hilton Portland Downtown
501,Muros,ES,64.24,broken clouds,42.7762,-9.0603,Apartment Av. Castelao
502,Barahona,DO,87.62,scattered clouds,18.2085,-71.1008,Hotel Caribe
503,Tomatlan,MX,78.98,overcast clouds,19.9333,-105.25,El Salvial
504,Bathsheba,BB,86.61,few clouds,13.2167,-59.5167,Atlantis Hotel
506,Severnyy,RU,51.84,fog,50.677,36.5532,Full House North Mini-Hotel
507,Novobiryusinskiy,RU,51.28,light rain,56.9578,97.7076,Gostinitsa
508,Victor Harbor,AU,53.8,broken clouds,-35.5667,138.6167,McCracken Country Club
509,Grand Baie,MU,70.27,overcast clouds,-20.0182,57.5802,Trou aux Biches Beachcomber Golf Resort & Spa
510,Markova,UA,47.46,overcast clouds,48.6758,24.4138,Vas.VOM
511,Sola,VU,81.27,overcast clouds,-13.8833,167.55,Leumerus Bungalows
514,Torquay,GB,55.85,scattered clouds,50.4638,-3.5143,The Grand Hotel
515,Nhulunbuy,AU,77.61,broken clouds,-12.2333,136.7667,East Arnhem Real Estate
516,Naukot,PK,84.2,very heavy rain,24.8587,69.4024,Rolak Sigrat Shop
517,Bosansko Grahovo,BA,57.4,broken clouds,44.1794,16.3639,Kesici Lodge
518,Salalah,OM,79.54,broken clouds,17.0151,54.0924,HAMDAN PLAZA HOTEL SALALAH
519,Mitzic,GA,69.57,light rain,0.7821,11.549,Motel Emys
520,Petrovsk-Zabaykalskiy,RU,47.08,broken clouds,51.273,108.843,Arley
521,Miri,MY,78.94,heavy intensity rain,4.4148,114.0089,"Mega Hotel, Miri"
522,Namatanai,PG,81.68,broken clouds,-3.6667,152.4333,Seagulls Inn Namatani
523,Vila,PT,53.33,scattered clouds,42.0304,-8.1588,Hotel Castrum Villae by Walk Hotels
528,Morada Nova,BR,79.93,overcast clouds,-5.1067,-38.3725,PIZZARIA MARIANA
529,Sarospatak,HU,51.51,broken clouds,48.3167,21.5833,Hotel Rákóczi
531,Wuda,CN,60.51,few clouds,39.4994,106.7117,Grape Sightseeing Garden
533,Sur,OM,81.9,broken clouds,22.5667,59.5289,Sur Plaza Hotel
536,Bahia Blanca,AR,55.38,moderate rain,-38.7196,-62.2724,Hotel Argos
538,Gorgan,IR,67.96,clear sky,36.8387,54.4348,Khayyam Motel
539,Belmonte,BR,77.5,scattered clouds,-15.8631,-38.8828,Pousada Monte Carmelo O Pão
540,Najran,SA,83.05,clear sky,17.4924,44.1277,محمد هادي ال فطيح
541,Imphal,IN,68.41,broken clouds,24.8167,93.95,State Guest House
542,San Vicente,AR,77.54,overcast clouds,-26.6167,-54.1333,Complejo Turístico Farelluk
543,Riyadh,SA,84.34,clear sky,24.6877,46.7219,"InterContinental Riyadh, an IHG Hotel"
544,Narok,KE,60.91,broken clouds,-1.0783,35.8601,OLORROPIL TOWERS
545,Kerewan,GM,75.31,overcast clouds,13.4898,-16.0888,ADWAC Residents
548,Ginir,ET,62.69,light rain,7.1333,40.7,Sura Dare Village
549,Conakry,GN,80.26,overcast clouds,9.538,-13.6773,Riviera Royal Hotel
552,Shieli,KZ,55.04,clear sky,44.1667,66.75,Gostinitsa Aybek Shieli
553,Fairmont,US,85.37,few clouds,39.4851,-80.1426,Clarion Inn
554,Solano,US,85.1,clear sky,38.2333,-121.9511,Travis AFB FamCamp
556,Kasempa,ZM,71.31,clear sky,-13.4584,25.8338,Lolelunga Forest Reserve
557,Makakilo City,US,82.72,overcast clouds,21.3469,-158.0858,Marriott's Ko Olina Beach Club
559,Sao Desiderio,BR,82.15,clear sky,-12.3633,-44.9733,Hotel azaf
560,Yaring,TH,77.22,overcast clouds,6.8662,101.3689,สถานที่จัดงานแต่ง SOFEE & DORN
561,Pisco,PE,66.25,clear sky,-13.7,-76.2167,Hotel San Isidro Oficial
562,Birmitrapur,IN,72.9,broken clouds,22.4,84.7667,ANUP LOMGA
563,Boo,SE,50.77,overcast clouds,59.3333,18.2833,Yasuragi
564,Hamilton,US,86.59,clear sky,39.1834,-84.5333,Six Acres Bed & Breakfast
565,Cervo,ES,58.96,broken clouds,43.6702,-7.4101,Hotel Spa Galatea
566,Marsh Harbour,BS,83.73,broken clouds,26.5412,-77.0636,Abaco Beach Resort
568,Hami,CN,72.52,scattered clouds,42.8,93.45,Laoyutang Resort
569,Erlangen,DE,54.59,broken clouds,49.5897,11.0039,Creativhotel Luise
571,Miraflores,MX,66.85,overcast clouds,19.2167,-98.8083,Hotel Mansión
572,Rocha,UY,60.62,overcast clouds,-34.4833,-54.3333,Beleza Pura B&B
573,Savannakhet,LA,74.07,overcast clouds,16.566,104.751,โรงแรม ริเวอร์ ฟร้อนท์
574,Salamiyah,SY,72.39,clear sky,35.0113,37.0532,Gondolas Forum grandchildren and grandparents
575,Naze,JP,70.72,scattered clouds,28.3667,129.4833,オーベルジュ・アガルイ
576,Chipata,ZM,62.24,scattered clouds,-13.6333,32.65,Protea Hotel by Marriott Chipata
578,Lasa,IT,53.02,overcast clouds,46.6166,10.7002,Pension Feldgärtenhof
579,Tecoanapa,MX,84.94,broken clouds,16.5167,-98.75,Hotel Manglares
580,Maningrida,AU,69.66,overcast clouds,-12.0667,134.2667,Dhukurrdji Lodge
581,Kiunga,PG,73.44,overcast clouds,-6.1219,141.2906,Airport Lodge Kiunga
582,Port Macquarie,AU,49.96,clear sky,-31.4333,152.9167,Rydges Port Macquarie
583,Pacific Grove,US,83.57,clear sky,36.6177,-121.9166,Lovers Point Inn
584,Alexandria,EG,80.56,clear sky,31.2156,29.9553,Royal Crown Hotel
585,Baoqing,CN,44.13,broken clouds,46.3317,132.2111,Baoqing Hotel
586,Biloela,AU,66.65,clear sky,-24.4167,150.5,Biloela Silo Motor Inn
587,Shahapur,IN,78.28,overcast clouds,19.45,73.3333,OYO 68690 Hotel New Food Hub
588,Whitehorse,CA,51.1,scattered clouds,60.7161,-135.0538,The Sternwheeler Hotel & Conference Centre
589,Nuoro,IT,68.99,scattered clouds,40.3211,9.3297,Hotel Sandalia
591,Chalus,IR,71.06,broken clouds,36.655,51.4204,نظام مهندسي ساختمان چالوس
593,Takab,IR,57.81,clear sky,36.4009,47.1133,نانوایی جواد
594,Bumba,CD,72.18,few clouds,2.1833,22.4667,Père Carlos
595,Sorata,BO,49.87,scattered clouds,-15.7667,-68.6333,El Encanto Sorata
597,Sarangani,PH,77.77,overcast clouds,5.4033,125.4636,Ballistic Islet
598,Tuatapere,NZ,50.83,scattered clouds,-46.1333,167.6833,Ron and Tony's Bed & Breakfast
599,Ishigaki,JP,80.73,few clouds,24.3448,124.1572,Hotel Peace Land Ishigakijima
600,Popondetta,PG,73.72,overcast clouds,-8.7537,148.2534,Timos Transit House
601,Ahipara,NZ,59.45,few clouds,-35.1667,173.1667,Ahipara Holiday Park
602,Pineville,US,84.18,mist,31.3224,-92.4343,"Country Inn & Suites by Radisson, Pineville, LA"
603,Codrington,AU,47.17,scattered clouds,-38.2667,141.9667,Codrington Gardens Bed And Breakfast
604,Viedma,AR,52.97,broken clouds,-40.8135,-62.9967,Hotel Cristal
605,Port Lincoln,AU,53.15,broken clouds,-34.7333,135.8667,Port Lincoln Hotel
606,Hobyo,SO,76.96,overcast clouds,5.3505,48.5268,Halane Hotel and Restaurent
607,Cabedelo,BR,77.67,broken clouds,-6.9811,-34.8339,Hotel Pigalle
608,Sandnessjoen,NO,51.78,overcast clouds,66.0217,12.6316,Syv Søstre Apartments
613,Shu,KZ,57.34,scattered clouds,43.5983,73.7614,Shyngyzkhan
614,San Carlos De Bariloche,AR,49.75,few clouds,-41.1456,-71.3082,Hotel Patagonia
615,Cacu,BR,87.37,broken clouds,-18.5567,-51.1308,Império Hotel
616,Traralgon,AU,52.18,broken clouds,-38.1833,146.5333,Comfort Inn Traralgon
617,Abaza,RU,50.61,overcast clouds,52.655,90.0928,Гостевой дом «Кедровый»
619,Margate,GB,63.3,overcast clouds,51.3813,1.3862,Premier Inn Margate hotel
620,Labuhan,ID,76.66,scattered clouds,-6.8844,112.2051,PT PPI Lamongan Tambak C
622,Kendari,ID,74.73,overcast clouds,-3.945,122.4989,Hotel Wixel
623,Cap Malheureux,MU,70.29,overcast clouds,-19.9842,57.6142,Pereybere Hotel & Spa
626,Muroto,JP,71.64,broken clouds,33.2833,134.15,Oota Ryokan
627,Ryotsu,JP,62.56,few clouds,38.0833,138.4333,Sadokamoko Onsen Kohanno Yado Yoshidaya
628,Gweru,ZW,57.69,clear sky,-19.45,29.8167,Suskwe Lodges
630,Soe,ID,64.31,broken clouds,-9.8607,124.284,Dena Hotel
631,Warrnambool,AU,49.8,broken clouds,-38.3833,142.4833,Lady Bay Resort
633,Chapleau,CA,73.49,clear sky,47.8405,-83.4034,Nemegosenda Lake Lodge
635,Sheridan,US,64.58,light rain,44.8333,-106.9173,Comfort Inn & Suites
637,Ulaanbaatar,MN,50.13,broken clouds,47.9077,106.8832,The Blue Sky Hotel and Tower
639,Iisalmi,FI,44.62,overcast clouds,63.5592,27.1907,Original Sokos Hotel Koljonvirta
641,Brewster,US,74.43,clear sky,41.3973,-73.6171,Heidi's Inn
642,Simplicio Mendes,BR,84.16,broken clouds,-7.8539,-41.9103,Fidalgo
647,Chimbote,PE,63.37,scattered clouds,-9.0853,-78.5783,Hotel Viera Chimbote
648,Santa Rita,BR,77.67,few clouds,-7.1139,-34.9781,Infinity Motel
649,Jinan,CN,61.95,light rain,36.6683,116.9972,Shandong Grand Tower Hotel
650,Tignere,CM,64.78,broken clouds,7.3667,12.65,SADECK
651,Gornyye Klyuchi,RU,45.64,overcast clouds,45.25,133.5,Little Red Riding Hood
652,Abu Zabad,SD,77.94,overcast clouds,12.35,29.25,حامد محمد نور
653,Maslova Pristan,RU,54.0,few clouds,50.4587,36.7408,Guest House Na Dache
654,Siniscola,IT,67.55,scattered clouds,40.5719,9.6922,Hotel Sa Tanca E Bore
656,Molina,CL,58.73,scattered clouds,-35.1167,-71.2833,Hostal Pucará
657,Komsomolskiy,UZ,68.72,clear sky,40.4272,71.7189,Ikathouse
659,Trairi,BR,78.6,broken clouds,-3.2778,-39.2689,janelas do mar
660,Dwarka,IN,81.7,clear sky,22.2394,68.9678,Hotel Narayan Avezika Comfort
662,Fresno,US,85.24,scattered clouds,36.6666,-119.8343,GPS 07
663,Gairo,IT,67.21,few clouds,39.8497,9.5047,La Nuova Luna
664,Broken Hill,AU,47.91,clear sky,-31.95,141.4333,Royal Exchange Hotel
665,Matay,EG,81.0,clear sky,28.419,30.7792,Nag Aespen
666,Catemaco,MX,81.73,scattered clouds,18.4167,-95.1167,Hotel Playa Cristal
668,Olinda,BR,76.73,scattered clouds,-8.0089,-34.8553,Hotel Albergue de Olinda
669,Ullapool,GB,54.36,clear sky,57.8987,-5.1604,Argyll Hotel
670,Dalvik,IS,48.13,overcast clouds,65.9702,-18.5286,Dalvík HI Hostel
671,Ugoofaaru,MV,82.08,scattered clouds,5.6667,73.0,Ungoofaaru Inn
672,Sinnamary,GF,80.91,overcast clouds,5.3833,-52.95,ALETHEIA Appartement Sinnamary
673,Filadelfia,US,80.28,clear sky,39.9523,-75.1638,"The Ritz-Carlton, Philadelphia"
674,Bayburt,TR,52.18,clear sky,40.2589,40.2278,Bayburt Otel Konaklama
679,La Plata,AR,66.11,overcast clouds,-34.9215,-57.9545,Hotel Corregidor
680,Hovd,MN,57.07,clear sky,48.0056,91.6419,Hotel Khovd
681,Ayan,RU,44.35,clear sky,56.45,138.1667,Gostinitsa
682,Quelimane,MZ,64.35,clear sky,-17.8786,36.8883,Hotel Flamingo
683,Alice Springs,AU,62.15,broken clouds,-23.7,133.8833,Desert Palms Alice Springs
684,Binga,ZW,70.84,clear sky,-17.6203,27.3414,Lakeview Inn Binga
686,Ejura,GH,73.31,light rain,7.3856,-1.3562,Fire Servece
687,Sorkjosen,NO,44.47,overcast clouds,69.8,20.9333,Reisafjord Hotel AS
688,Boa Vista,BR,80.58,broken clouds,2.8197,-60.6733,Aipana Plaza Hotel
689,Svetlogorsk,BY,48.51,overcast clouds,52.6333,29.7333,Hotel Svetlogorsk JBIK
690,Dalnerechensk,RU,44.58,broken clouds,45.9339,133.7225,"Royal Cafe, Bar, Hotel"
