City_ID,City,Country,Lat,Lng,Max Temp,Humidity,Cloudiness,Wind Speed,Current Description
0,Tuktoyaktuk,CA,69.4541,-133.0374,44.6,53,75,16.11,broken clouds
1,Dikson,RU,73.5069,80.5464,35.56,77,100,19.84,overcast clouds
2,Thakurganj,IN,26.45,88.1333,76.84,94,26,6.49,scattered clouds
3,Kodiak,US,57.79,-152.4072,51.31,71,1,3.44,clear sky
4,Arraial Do Cabo,BR,-22.9661,-42.0278,75.16,83,75,4.61,broken clouds
5,Bambanglipuro,ID,-7.95,110.2833,74.66,89,65,7.25,broken clouds
6,Ushuaia,AR,-54.8,-68.3,47.86,49,75,24.16,heavy intensity rain
7,Ilulissat,GL,69.2167,-51.1,17.35,69,100,5.03,overcast clouds
8,Mataura,NZ,-46.1927,168.8643,50.49,72,58,4.72,light rain
9,Bluff,NZ,-46.6,168.3333,50.81,79,82,15.19,broken clouds
10,Busselton,AU,-33.65,115.3333,46.04,82,0,11.68,clear sky
11,Archena,ES,38.1163,-1.3004,74.07,69,0,3.27,clear sky
12,Hobart,AU,-42.8794,147.3294,47.26,79,75,5.99,broken clouds
13,Bonoua,CI,5.2741,-3.595,76.62,93,25,4.76,scattered clouds
14,San Cristobal,VE,7.7669,-72.225,78.98,86,65,3.53,broken clouds
15,Tasiilaq,GL,65.6145,-37.6368,37.56,75,84,1.97,broken clouds
16,Port Alfred,ZA,-33.5906,26.891,60.98,82,74,9.28,broken clouds
17,Iqaluit,CA,63.7506,-68.5145,35.33,75,40,19.57,scattered clouds
18,Avarua,CK,-21.2078,-159.775,78.85,78,75,14.97,broken clouds
19,Beatrice,US,40.2681,-96.747,91.04,43,1,20.71,clear sky
20,Sai Buri,TH,6.7013,101.6168,75.99,90,100,7.56,overcast clouds
21,Kyra,RU,49.5776,111.9753,48.85,89,100,1.57,overcast clouds
22,Saint Anthony,US,45.0205,-93.218,89.92,43,1,3.0,clear sky
23,Lavrentiya,RU,65.5833,-171.0,32.22,62,3,10.2,clear sky
24,Saskylakh,RU,71.9167,114.0833,27.9,94,100,5.95,overcast clouds
25,Albany,US,42.6001,-73.9662,70.38,65,5,3.2,clear sky
26,Puerto Ayora,EC,-0.7393,-90.3518,76.96,89,75,10.0,broken clouds
27,Ladario,BR,-19.0047,-57.6017,102.49,21,6,14.97,clear sky
28,Saint-Philippe,RE,-21.3585,55.7679,63.99,69,5,6.49,clear sky
29,Nabire,ID,-3.3667,135.4833,74.84,90,100,2.68,overcast clouds
30,Butaritari,KI,3.0707,172.7902,83.16,67,76,14.36,broken clouds
31,Rikitea,PF,-23.1203,-134.9692,73.89,76,3,11.59,clear sky
32,Kaitangata,NZ,-46.2817,169.8464,49.26,77,45,5.64,scattered clouds
33,Kapaa,US,22.0752,-159.319,80.58,73,90,1.99,light rain
34,Hermanus,ZA,-34.4187,19.2345,56.89,78,0,12.46,clear sky
35,Orocue,CO,4.7912,-71.3354,83.82,69,97,1.9,overcast clouds
36,Lashio,MM,22.9333,97.75,67.39,100,100,0.85,overcast clouds
37,Otane,NZ,-39.8833,176.6333,55.38,55,38,11.32,scattered clouds
38,Port-Gentil,GA,-0.7193,8.7815,78.76,78,40,9.22,scattered clouds
39,Imbituba,BR,-28.24,-48.6703,73.29,97,64,13.73,moderate rain
40,Narsaq,GL,60.9167,-46.05,38.62,84,70,3.0,broken clouds
41,Cabo San Lucas,MX,22.8909,-109.9124,94.51,73,43,7.72,scattered clouds
42,Maldonado,UY,-34.6667,-54.9167,62.22,95,100,11.23,overcast clouds
43,Victoria,HK,22.2855,114.1577,84.33,87,21,4.74,few clouds
44,Mount Isa,AU,-20.7333,139.5,73.17,38,3,6.91,clear sky
45,Punta Arenas,CL,-53.15,-70.9167,46.51,71,75,24.16,light intensity shower rain
46,Muana,BR,-1.5283,-49.2167,79.81,79,89,7.45,overcast clouds
47,Chuy,UY,-33.6971,-53.4616,61.5,97,100,8.52,overcast clouds
48,Cape Town,ZA,-33.9258,18.4232,58.12,90,40,1.01,light rain
49,Luganville,VU,-15.5333,167.1667,77.25,80,94,14.88,overcast clouds
50,Pinega,RU,64.7001,43.3936,40.35,67,100,3.78,overcast clouds
51,Dunedin,NZ,-45.8742,170.5036,55.8,56,62,8.01,broken clouds
52,Taoudenni,ML,22.6783,-3.9836,99.75,10,0,6.33,clear sky
53,Hofn,IS,64.2539,-15.2082,50.45,83,79,14.16,broken clouds
54,Hilo,US,19.7297,-155.09,84.27,67,90,4.61,light rain
55,Vila Velha,BR,-20.3297,-40.2925,75.15,83,40,4.61,scattered clouds
56,Japura,ID,-0.3167,102.35,70.11,95,86,1.57,overcast clouds
57,Alta Floresta,BR,-9.8756,-56.0861,86.04,28,1,3.04,clear sky
58,Bambous Virieux,MU,-20.3428,57.7575,70.05,60,40,5.75,scattered clouds
59,Atuona,PF,-9.8,-139.0333,78.15,77,36,21.41,scattered clouds
60,Ostrovnoy,RU,68.0531,39.5131,36.81,79,26,6.67,scattered clouds
61,Mahebourg,MU,-20.4081,57.7,70.09,60,40,5.75,scattered clouds
62,Honiara,SB,-9.4333,159.95,81.5,81,96,10.49,overcast clouds
63,East London,ZA,-33.0153,27.9116,61.81,83,13,12.5,few clouds
64,Istisu,AZ,40.9457,48.0738,54.27,62,0,4.14,clear sky
65,Haines Junction,CA,60.7522,-137.5108,53.55,47,66,3.44,broken clouds
66,Vangaindrano,MG,-23.35,47.6,63.09,85,81,2.91,light rain
67,Chingirlau,KZ,51.095,54.0814,42.49,49,56,4.74,broken clouds
68,Kamenka,RU,51.3223,42.7678,51.55,56,100,19.42,moderate rain
69,Metu,ET,8.3,35.5833,58.24,98,100,2.26,overcast clouds
70,Praia Da Vitoria,PT,38.7333,-27.0667,70.05,83,40,10.4,scattered clouds
71,Puerto Baquerizo Moreno,EC,-0.9,-89.6,72.59,83,75,14.97,broken clouds
72,Orlik,RU,52.5178,99.825,44.74,64,86,2.68,overcast clouds
73,Vaini,TO,-21.2,-175.2,75.36,78,20,11.5,few clouds
74,Thongwa,MM,16.7619,96.5278,78.96,93,100,4.16,overcast clouds
75,Port Elizabeth,ZA,-33.918,25.5701,57.49,82,40,10.36,scattered clouds
76,San Patricio,US,28.017,-97.5169,98.69,37,1,5.12,clear sky
77,Sosnovo-Ozerskoye,RU,52.5249,111.5418,42.8,89,46,2.26,scattered clouds
78,Ambilobe,MG,-13.2,49.05,73.29,76,91,5.95,overcast clouds
79,Poum,NC,-20.2333,164.0167,72.37,61,7,17.67,clear sky
80,Jamestown,US,42.097,-79.2353,76.32,43,1,3.44,clear sky
81,Abidjan,CI,5.3094,-4.0197,76.96,94,20,5.75,few clouds
82,Faya,SA,18.3851,42.4509,71.71,21,74,5.82,broken clouds
83,Chumikan,RU,54.7183,135.315,43.92,69,32,16.13,scattered clouds
84,Nosy Varika,MG,-20.5833,48.5333,66.33,79,100,4.68,light rain
85,Bredasdorp,ZA,-34.5322,20.0403,52.92,87,0,4.61,clear sky
86,Torbay,CA,47.6666,-52.7314,58.75,96,90,12.66,moderate rain
87,Douglas,US,41.3,-96.167,90.99,50,40,8.99,scattered clouds
88,Saint George,US,37.1041,-113.5841,93.67,17,1,4.0,clear sky
89,Giddalur,IN,15.35,78.9167,80.69,67,100,0.27,overcast clouds
90,Ponta Do Sol,PT,32.6667,-17.1,74.03,68,94,5.44,overcast clouds
91,Alamosa,US,37.4695,-105.87,75.18,20,20,23.02,few clouds
92,New Norfolk,AU,-42.7826,147.0587,46.92,86,79,1.01,broken clouds
93,Geraldton,AU,-28.7667,114.6,55.81,76,0,14.97,clear sky
94,Grand Gaube,MU,-20.0064,57.6608,70.2,67,93,3.0,overcast clouds
95,Trat,TH,12.5,102.5,73.56,93,100,1.45,light rain
96,Vila Franca Do Campo,PT,37.7167,-25.4333,68.41,74,73,8.88,broken clouds
97,Bend,US,44.0582,-121.3153,59.49,52,75,1.99,broken clouds
98,Airai,TL,-8.9266,125.4092,58.14,47,35,3.83,scattered clouds
99,Kruisfontein,ZA,-34.0033,24.7314,51.89,91,47,6.02,scattered clouds
100,Kortkeros,RU,61.8106,51.5806,39.2,71,100,6.73,overcast clouds
101,Meulaboh,ID,4.1363,96.1285,73.0,94,100,10.36,moderate rain
102,Boyolangu,ID,-8.1181,111.8935,73.33,92,42,5.84,scattered clouds
103,Bereda,ES,43.2686,-7.5406,55.99,99,74,2.46,broken clouds
104,El Reno,US,35.5323,-97.955,94.06,31,1,13.8,clear sky
105,Bara,NG,10.3744,10.7288,72.95,79,18,6.38,few clouds
106,Kavieng,PG,-2.5744,150.7967,82.56,74,44,9.24,scattered clouds
107,Provideniya,RU,64.3833,-173.3,33.91,60,20,13.42,few clouds
108,Coolum Beach,AU,-26.5333,153.1,69.33,72,7,8.16,clear sky
109,Kisangani,CD,0.5167,25.2,68.38,99,23,1.99,light rain
110,Faanui,PF,-16.4833,-151.75,77.77,76,77,19.22,light rain
111,Chichihualco,MX,17.6833,-99.65,75.18,70,89,1.28,overcast clouds
112,San Quintin,MX,30.4833,-115.95,71.94,66,0,15.9,clear sky
113,Lagoa,PT,39.05,-27.9833,68.65,63,57,11.83,broken clouds
114,Tungor,RU,53.3808,142.9564,49.93,62,27,15.32,scattered clouds
115,Pevek,RU,69.7008,170.3133,30.88,75,92,8.03,overcast clouds
116,Peque,CO,7.0212,-75.9093,70.5,96,87,1.3,overcast clouds
117,Vestmannaeyjar,IS,63.4427,-20.2734,50.16,91,99,32.06,overcast clouds
118,Anadyr,RU,64.75,177.4833,32.5,80,20,2.24,few clouds
119,Weatherford,US,32.7593,-97.7972,96.82,44,4,1.01,clear sky
120,Cochrane,CA,51.1834,-114.4687,65.39,26,20,17.27,few clouds
121,Nannilam,IN,10.8793,79.6106,81.34,78,57,5.26,broken clouds
122,Shreveport,US,32.5251,-93.7502,92.05,64,1,10.36,clear sky
123,Lebu,CL,-37.6167,-73.65,51.12,73,1,17.56,clear sky
124,Khatanga,RU,71.9667,102.5,31.46,98,100,13.51,snow
125,Flinders,AU,-34.5833,150.8552,67.05,40,0,7.14,clear sky
126,Kuching,MY,1.55,110.3333,75.42,94,40,0.0,light rain
127,Saint Albans,GB,51.75,-0.3333,60.31,90,40,10.36,scattered clouds
128,Nome,US,64.5011,-165.4064,39.27,52,75,11.5,broken clouds
129,Nikolskoye,RU,59.7035,30.7861,41.02,77,100,8.57,overcast clouds
130,Grindavik,IS,63.8424,-22.4338,48.67,93,90,24.16,light intensity drizzle rain
131,Troitsko-Pechorsk,RU,62.7084,56.1964,35.22,80,72,10.42,broken clouds
132,Yar-Sale,RU,66.8333,70.8333,30.33,85,69,21.81,broken clouds
133,Kenitra,MA,34.261,-6.5802,69.84,77,76,6.33,broken clouds
134,Teguise,ES,29.0605,-13.564,70.02,68,40,6.91,scattered clouds
135,Phuntsholing,BT,26.8516,89.3884,75.6,93,69,2.66,broken clouds
136,Santa Isabel Do Rio Negro,BR,-0.4139,-65.0192,79.47,83,83,2.19,broken clouds
137,Aklavik,CA,68.2191,-135.0107,43.63,48,20,2.51,few clouds
138,Rio Grande,BR,-32.035,-52.0986,66.31,96,100,8.59,heavy intensity rain
139,Carnarvon,AU,-24.8667,113.6333,59.07,58,0,12.66,clear sky
140,Georgetown,MY,5.4112,100.3354,80.53,95,40,2.3,scattered clouds
141,Yellowknife,CA,62.456,-114.3525,48.72,66,75,8.05,broken clouds
142,Barrow,US,71.2906,-156.7887,33.82,69,75,21.85,light rain
143,Apomu,NG,7.3333,4.1833,71.82,99,77,2.68,light rain
144,Zyryanka,RU,65.75,150.85,29.07,87,100,17.4,light snow
145,Changping,CN,40.2186,116.2197,62.24,93,100,6.82,light rain
146,Kalmunai,LK,7.4167,81.8167,79.75,83,56,5.44,broken clouds
147,College,US,64.8569,-147.8028,46.65,69,75,6.91,broken clouds
148,Eyl,SO,7.9803,49.8164,78.01,76,76,13.13,broken clouds
149,Turan,VN,16.0678,108.2208,77.05,94,40,2.3,scattered clouds
150,Gazanjyk,TM,39.2446,55.5154,69.87,26,0,14.12,clear sky
151,Antofagasta,CL,-23.65,-70.4,58.28,79,36,10.33,scattered clouds
152,Dongsheng,CN,39.8161,109.9776,54.77,73,96,6.13,overcast clouds
153,Moyale,KE,3.5167,39.0584,74.26,35,32,10.02,scattered clouds
154,Mar Del Plata,AR,-38.0023,-57.5575,57.22,100,90,9.22,overcast clouds
155,Belyy Yar,RU,53.6039,91.3903,51.69,66,0,4.47,clear sky
156,Tahta,EG,26.7693,31.5021,84.52,23,2,6.55,clear sky
157,Bengkulu,ID,-3.8004,102.2655,73.47,90,93,2.71,overcast clouds
158,Kihei,US,20.785,-156.4656,84.97,67,40,18.41,scattered clouds
159,Tadpatri,IN,14.9167,78.0167,83.37,57,100,7.27,overcast clouds
160,Ust-Kuyga,RU,70.0167,135.6,28.54,65,65,5.95,broken clouds
161,Fort Nelson,CA,58.8053,-122.7002,54.99,54,75,4.61,broken clouds
162,Souillac,MU,-20.5167,57.5167,70.18,60,40,5.75,scattered clouds
163,Spencer,US,43.1414,-95.1444,89.71,44,1,21.85,clear sky
164,Nelson Bay,AU,-32.7167,152.15,59.95,78,0,8.48,clear sky
165,Kloulklubed,PW,7.0419,134.2556,83.44,71,90,12.01,overcast clouds
166,Akdepe,TM,42.0551,59.3788,57.29,41,0,10.45,clear sky
167,Tiksi,RU,71.6872,128.8694,34.2,75,100,19.28,overcast clouds
168,Sorland,NO,67.667,12.6934,52.23,78,100,11.23,overcast clouds
169,Coihaique,CL,-45.5752,-72.0662,50.61,53,40,6.91,scattered clouds
170,Mogadishu,SO,2.0371,45.3438,77.18,84,6,18.57,clear sky
171,Longyearbyen,SJ,78.2186,15.6401,39.25,94,100,5.41,overcast clouds
172,Severo-Kurilsk,RU,50.6789,156.125,50.0,93,100,18.07,overcast clouds
173,Festus,US,38.2206,-90.396,85.53,68,88,10.87,overcast clouds
174,Sanary-Sur-Mer,FR,43.1178,5.8001,67.95,63,0,5.01,clear sky
175,Santo Angelo,BR,-28.2992,-54.2631,88.12,70,0,3.44,clear sky
176,Palmer,US,42.1584,-72.3287,73.33,52,20,4.61,few clouds
177,Kirakira,SB,-10.4544,161.9205,82.22,78,99,13.31,light rain
178,Ancud,CL,-41.8697,-73.8203,51.42,80,34,8.05,scattered clouds
179,Rongcheng,CN,30.634,117.8517,70.23,97,100,3.69,light rain
180,Kaeo,NZ,-35.1,173.7833,64.33,71,30,6.73,scattered clouds
181,Guia De Isora,ES,28.2115,-16.7795,70.23,70,49,5.93,scattered clouds
182,Leland,US,34.2563,-78.0447,84.45,70,1,11.5,clear sky
183,Sutton,GB,51.35,-0.2,61.32,92,100,1.01,overcast clouds
184,Thompson,CA,55.7435,-97.8558,53.76,87,90,12.66,overcast clouds
185,Shenjiamen,CN,29.9576,122.298,77.52,93,17,21.25,few clouds
186,Batemans Bay,AU,-35.7167,150.1833,64.2,43,0,8.16,clear sky
187,Demyansk,RU,57.643,32.466,42.71,65,100,12.24,light rain
188,Senno,RU,59.5336,33.9167,38.8,78,100,10.2,overcast clouds
189,Hithadhoo,MV,-0.6,73.0833,81.66,78,100,4.63,overcast clouds
190,Nishihara,JP,26.1842,127.7558,77.05,81,20,6.91,few clouds
191,Kuytun,RU,54.3419,101.5036,46.8,93,98,6.71,overcast clouds
192,Winona,US,43.9666,-91.7668,87.6,54,1,0.0,clear sky
193,Pilar,BR,-9.5972,-35.9567,76.93,88,79,4.79,broken clouds
194,Castro,BR,-24.7911,-50.0119,65.7,94,58,5.82,broken clouds
195,Mezen,RU,65.8522,44.24,41.09,67,100,5.68,overcast clouds
196,Goderich,CA,43.7501,-81.7165,76.03,53,0,3.44,clear sky
197,Bethel,US,41.3712,-73.414,74.19,68,8,4.34,clear sky
198,Paoua,CF,7.2427,16.4406,70.05,92,100,2.77,light rain
199,Camacha,PT,33.0833,-16.3333,70.56,73,75,12.66,broken clouds
200,Constitucion,CL,-35.3333,-72.4167,53.65,72,2,16.13,clear sky
201,Krasnoselkup,RU,65.7,82.4667,36.73,88,100,6.82,overcast clouds
202,Mataram,ID,-8.5833,116.1167,77.81,86,28,7.58,scattered clouds
203,Da Lat,VN,11.9465,108.4419,58.78,98,100,0.72,overcast clouds
204,Rawson,AR,-43.3002,-65.1023,55.08,47,69,6.06,broken clouds
205,San Rafael,AR,-34.6177,-68.3301,63.28,30,1,23.53,clear sky
206,Bagdarin,RU,54.4333,113.6,38.88,93,9,1.12,clear sky
207,Porto Novo,BJ,6.4965,2.6036,80.42,86,80,5.77,broken clouds
208,Cherskiy,RU,68.75,161.3,29.25,61,42,6.82,scattered clouds
209,Ojinaga,MX,29.5667,-104.4167,98.56,17,1,4.61,clear sky
210,Nampula,MZ,-15.1165,39.2666,64.35,82,0,8.05,clear sky
211,Luderitz,NA,-26.6481,15.1594,54.59,85,0,9.53,clear sky
212,Ambanja,MG,-13.6833,48.45,72.36,94,100,3.27,moderate rain
213,Hualmay,PE,-11.0964,-77.6139,63.36,73,15,12.35,few clouds
214,Yulara,AU,-25.2406,130.9889,62.44,77,70,8.05,broken clouds
215,Kidal,ML,18.4411,1.4078,92.1,14,2,6.31,clear sky
216,Monrovia,LR,6.3005,-10.7969,76.86,86,100,6.73,light rain
217,Shintomi,JP,32.0785,131.4723,69.12,86,15,4.29,few clouds
218,Marzuq,YE,14.4,46.4667,79.61,34,90,1.63,overcast clouds
219,Tucupita,VE,9.0622,-62.051,79.75,78,99,1.97,overcast clouds
220,Cubatao,BR,-23.895,-46.4253,87.53,88,75,3.44,broken clouds
221,Qaanaaq,GL,77.484,-69.3632,14.61,89,92,6.96,overcast clouds
222,La Grande,US,45.3246,-118.0877,61.56,86,100,1.28,moderate rain
223,Pratapgarh,IN,24.0333,74.7833,71.73,97,76,8.93,broken clouds
224,Lamu,KE,-2.2717,40.902,77.22,82,20,16.8,few clouds
225,Neftcala,AZ,39.3742,49.2472,71.35,64,0,5.48,clear sky
226,Sao Filipe,CV,14.8961,-24.4956,80.06,81,96,12.28,overcast clouds
227,Liverpool,GB,53.4106,-2.9779,55.35,83,20,1.01,few clouds
228,Virginia Beach,US,36.8529,-75.978,82.42,75,75,13.8,broken clouds
229,Micoud,LC,13.8167,-60.9,84.13,70,20,8.05,few clouds
230,Sitka,US,57.0531,-135.33,55.29,76,75,3.44,broken clouds
231,High Prairie,CA,55.4334,-116.4858,52.9,52,95,11.59,overcast clouds
232,Kalianget,ID,-7.05,113.9333,78.3,77,42,3.65,scattered clouds
233,Redmond,US,47.674,-122.1215,66.85,74,100,5.01,overcast clouds
234,Acari,PE,-15.4311,-74.6158,65.53,75,55,6.76,broken clouds
235,Jimma,ET,7.6667,36.8333,57.7,95,22,1.61,few clouds
236,Ust-Maya,RU,60.4167,134.5333,31.26,97,100,7.16,light snow
237,Norrtalje,SE,59.758,18.705,51.03,62,100,8.14,overcast clouds
238,Port Blair,IN,11.6667,92.75,79.97,84,100,2.55,light rain
239,Chicama,PE,-7.8447,-79.1469,61.34,71,21,9.8,few clouds
240,Yeppoon,AU,-23.1333,150.7333,64.18,65,5,8.88,clear sky
241,Cidreira,BR,-30.1811,-50.2056,66.76,97,89,16.82,moderate rain
242,Ribeira Grande,PT,38.5167,-28.7,69.78,66,33,9.71,scattered clouds
243,Bubaque,GW,11.2833,-15.8333,81.01,81,100,10.6,moderate rain
244,Katsuura,JP,35.1333,140.3,69.91,75,86,15.7,overcast clouds
245,Padang,ID,-0.9492,100.3543,75.25,84,97,3.58,overcast clouds
246,Tete,MZ,-16.1564,33.5867,68.09,60,0,4.61,clear sky
247,Santiago Del Estero,AR,-27.7951,-64.2615,85.8,36,100,6.22,overcast clouds
248,Pudozh,RU,61.8099,36.5345,33.35,92,7,4.32,clear sky
249,Leshukonskoye,RU,64.8989,45.7622,39.06,72,100,4.52,overcast clouds
250,Mineiros,BR,-17.5694,-52.5511,83.91,14,13,7.4,few clouds
251,Umm Lajj,SA,25.0213,37.2685,83.89,60,7,7.56,clear sky
252,Sanming,CN,26.2486,117.6186,76.3,91,0,2.89,clear sky
253,Petropavlovsk-Kamchatskiy,RU,53.0452,158.6483,48.79,100,90,11.18,light intensity shower rain
254,Saint-Georges,GD,12.0564,-61.7485,87.48,70,20,0.0,few clouds
255,Edgewater,US,28.9889,-80.9023,84.0,71,99,6.71,light rain
256,Panguna,PG,-6.3164,155.4848,76.19,77,96,2.39,overcast clouds
257,Usvyaty,RU,55.7456,30.7533,38.73,97,100,12.33,light rain
258,Palembang,ID,-2.9167,104.7458,73.22,94,75,3.87,light rain
259,Kosonsoy,UZ,41.2561,71.5508,61.36,25,1,8.61,clear sky
260,Zhigansk,RU,66.7697,123.3711,27.91,92,12,10.89,few clouds
261,Grand Forks,US,47.9417,-97.4337,80.33,37,75,4.61,smoke
262,Lorengau,PG,-2.0226,147.2712,83.52,73,86,7.9,overcast clouds
263,Belomorsk,RU,64.5232,34.7668,37.83,83,30,2.95,scattered clouds
264,Upernavik,GL,72.7868,-56.1549,25.43,60,67,6.91,broken clouds
265,Raudeberg,NO,61.9875,5.1352,55.87,88,100,1.01,overcast clouds
266,Zalantun,CN,48.0,122.7167,44.47,93,94,1.54,light rain
267,Yining,CN,29.0361,114.5636,71.28,98,100,3.29,light rain
268,Hasaki,JP,35.7333,140.8333,66.6,68,50,16.35,scattered clouds
269,Chantilly,US,38.8943,-77.4311,81.32,68,20,3.0,few clouds
270,Salsomaggiore Terme,IT,44.8148,9.9796,61.92,83,60,5.53,broken clouds
271,Lompoc,US,34.6391,-120.4579,88.79,68,1,18.41,clear sky
272,Kathu,TH,7.9178,98.3332,76.82,77,100,11.77,overcast clouds
273,Ciudad Del Maiz,MX,22.4,-99.6,78.4,47,38,8.79,scattered clouds
274,Beringovskiy,RU,63.05,179.3167,38.37,80,100,7.65,overcast clouds
275,Sedalia,US,38.7045,-93.2283,87.85,48,20,12.66,few clouds
276,Hambantota,LK,6.1241,81.1185,79.14,100,0,6.91,clear sky
277,San Francisco Del Mar,MX,16.2333,-94.65,88.66,66,38,1.43,scattered clouds
278,Laguna,US,38.421,-121.4238,83.21,35,1,4.0,clear sky
279,Gold Coast,AU,-28.0,153.4333,69.87,82,40,5.99,scattered clouds
280,Augusta,DE,48.3667,10.8833,55.6,86,90,4.61,overcast clouds
281,Svetlyy,RU,54.675,20.1347,50.05,67,95,10.07,overcast clouds
282,Kalengwa,ZM,-13.4659,25.0027,68.14,34,63,5.57,broken clouds
283,Gushikawa,JP,26.3544,127.8686,77.0,89,1,0.0,clear sky
284,Guerrero Negro,MX,27.9769,-114.0611,75.49,61,1,18.32,clear sky
285,Serabu,SL,7.7958,-12.0536,73.85,98,98,2.73,light rain
286,Thunder Bay,CA,48.4001,-89.3168,82.38,58,75,19.57,broken clouds
287,Sambava,MG,-14.2667,50.1667,70.47,87,100,13.8,light rain
288,Quatre Cocos,MU,-20.2078,57.7625,69.91,61,87,11.21,overcast clouds
289,Nohar,IN,29.1833,74.7667,85.06,67,13,6.49,few clouds
290,Hirara,JP,24.8,125.2833,77.27,100,75,5.75,broken clouds
291,San Antonio,US,29.4241,-98.4936,100.02,39,1,3.44,clear sky
292,Rancho Palos Verdes,US,33.7445,-118.387,89.67,76,1,1.99,clear sky
293,Touros,BR,-5.1989,-35.4608,79.7,78,100,18.3,overcast clouds
294,Verkhnetulomskiy,RU,68.6073,31.7962,26.73,83,1,5.12,clear sky
295,Tiarei,PF,-17.5333,-149.3333,82.42,72,53,19.71,broken clouds
296,Ketchikan,US,55.3422,-131.6461,55.87,88,75,9.22,light rain
297,Vicente Guerrero,MX,19.1194,-98.1708,64.06,73,94,8.52,overcast clouds
298,Chokurdakh,RU,70.6333,147.9167,26.08,78,93,8.57,overcast clouds
299,Rafraf,TN,37.1904,10.1837,75.51,78,0,16.53,clear sky
300,Tyukhtet,RU,56.5389,89.3011,42.48,91,75,5.82,broken clouds
301,Saldanha,ZA,-33.0117,17.9442,57.25,80,87,8.23,overcast clouds
302,Lethem,GY,3.3803,-59.7968,84.25,74,75,4.61,light intensity shower rain
303,Yumen,CN,40.2833,97.2,65.59,20,3,7.34,clear sky
304,La Ronge,CA,55.1001,-105.2842,57.45,51,75,9.22,broken clouds
305,Ucluelet,CA,48.9329,-125.5528,61.05,86,42,3.71,scattered clouds
306,Kupang,ID,-10.1667,123.5833,77.58,73,40,6.91,scattered clouds
307,Ixtapa,MX,20.7,-105.2,80.22,92,100,5.01,overcast clouds
308,Sydney Mines,CA,46.2367,-60.2177,61.81,81,40,13.0,scattered clouds
309,Jurado,CO,7.1053,-77.7641,81.14,79,73,5.53,broken clouds
310,Peleduy,RU,59.6289,112.7406,44.28,95,88,2.64,overcast clouds
311,Esmeraldas,BR,-19.7625,-44.3139,90.46,25,81,6.11,broken clouds
312,Manacor,ES,39.5696,3.2096,71.51,74,50,6.67,scattered clouds
313,Barraute,CA,48.4335,-77.6328,68.27,52,5,7.02,clear sky
314,Tupik,RU,54.4253,119.9327,39.51,94,50,4.25,scattered clouds
315,Huron,US,41.1501,-82.5499,84.69,61,33,6.49,scattered clouds
316,Fort Smith,US,35.3859,-94.3986,91.89,50,20,4.0,few clouds
317,Nouadhibou,MR,20.931,-17.0347,78.78,83,0,9.22,clear sky
318,Zhuhai,CN,22.2769,113.5678,82.18,94,40,3.44,light rain
319,Cayenne,GF,4.9333,-52.3333,84.09,75,20,5.01,few clouds
320,Ploemeur,FR,47.7333,-3.4333,58.95,89,0,5.75,clear sky
321,Fortuna,US,40.5982,-124.1573,72.43,63,40,8.99,scattered clouds
322,Qaqortoq,GL,60.7167,-46.0333,37.56,86,31,10.56,scattered clouds
323,Baherden,TM,38.4362,57.4316,70.95,28,0,7.58,clear sky
324,Khorixas,NA,-20.3667,14.9667,62.55,47,0,3.51,clear sky
325,Abaete,BR,-19.16,-45.4458,85.23,20,81,1.72,broken clouds
326,Clyde River,CA,70.4692,-68.5914,30.74,59,78,2.15,broken clouds
327,Solnechnyy,RU,50.7214,136.6319,48.67,50,0,7.94,clear sky
328,Saint-Pierre,RE,-21.3393,55.4781,64.08,68,75,6.91,broken clouds
329,Slave Lake,CA,55.2834,-114.769,49.98,76,90,16.11,overcast clouds
330,Vanderhoof,CA,54.0166,-124.0198,60.19,42,96,8.9,overcast clouds
331,Esperance,AU,-33.8667,121.9,51.64,65,75,11.05,broken clouds
332,Leningradskiy,RU,69.3833,178.4167,28.24,84,92,21.79,overcast clouds
333,Dingle,PH,10.9995,122.6711,75.0,91,100,2.42,overcast clouds
334,Sao Sebastiao Do Paraiso,BR,-20.9169,-46.9914,84.36,26,99,1.86,overcast clouds
335,Humberto De Campos,BR,-2.5983,-43.4611,78.8,78,64,7.9,broken clouds
336,Huarmey,PE,-10.0681,-78.1522,64.4,74,5,12.17,clear sky
337,Zhangjiakou,CN,40.81,114.8794,55.98,91,100,2.08,overcast clouds
338,Vardo,NO,70.3705,31.1107,43.0,76,100,22.79,overcast clouds
339,Taltal,CL,-25.4,-70.4833,61.27,76,19,5.86,few clouds
340,Bairiki,KI,1.3292,172.9752,84.2,65,20,5.75,few clouds
341,Richards Bay,ZA,-28.783,32.0377,65.84,68,70,17.18,broken clouds
342,Cockburn Town,TC,21.4612,-71.1419,85.96,66,40,10.36,scattered clouds
343,Kudahuvadhoo,MV,2.6708,72.8944,82.04,77,90,8.14,overcast clouds
344,Klaksvik,FO,62.2266,-6.589,50.92,87,46,9.17,scattered clouds
345,Necochea,AR,-38.5473,-58.7368,55.04,92,63,8.14,broken clouds
346,Tabou,CI,4.423,-7.3528,77.85,85,61,4.38,broken clouds
347,Elat,IL,29.5581,34.9482,85.84,32,0,18.41,clear sky
348,Joetsu,JP,37.1483,138.2364,68.41,76,41,4.68,scattered clouds
349,Ballina,AU,-28.8667,153.5667,63.95,96,40,4.61,scattered clouds
350,Savannah Bight,HN,16.45,-85.85,89.65,75,55,17.05,broken clouds
351,Sukhumi,GE,43.0033,41.0153,67.87,65,100,6.06,overcast clouds
352,Matamoros,MX,25.5333,-103.25,93.31,20,40,5.75,scattered clouds
353,Umm Kaddadah,SD,13.6017,26.6876,88.66,38,92,8.88,overcast clouds
354,Paducah,US,37.0834,-88.6001,79.61,79,40,11.5,scattered clouds
355,Uvaly,CZ,50.0739,14.7308,53.17,82,90,3.44,overcast clouds
356,Yanam,IN,16.7333,82.2167,77.0,92,100,3.33,heavy intensity rain
357,Deputatskiy,RU,69.3,139.9,18.03,94,98,6.02,overcast clouds
358,Itape,PY,-25.85,-56.6167,87.53,36,93,5.59,overcast clouds
359,Ula,IN,22.7225,88.5556,82.38,89,90,0.0,thunderstorm with rain
360,Ladovskaya Balka,RU,45.6297,41.4023,62.85,83,100,6.33,moderate rain
361,Adrar,MR,20.5022,-10.0711,92.86,23,3,19.33,clear sky
362,Oistins,BB,13.0667,-59.5333,86.09,62,20,9.22,few clouds
363,Bekovo,RU,52.4663,43.712,47.53,60,100,15.21,light rain
364,Iwanai,JP,42.9744,140.5089,61.68,71,62,2.66,broken clouds
365,Bom Jesus,BR,-9.0744,-44.3586,84.88,24,72,2.98,broken clouds
366,Lata,PT,40.1629,-8.3327,63.07,96,5,2.04,clear sky
367,Thayetmyo,MM,19.3167,95.1833,74.82,97,100,1.52,overcast clouds
368,Hella,NO,67.2,14.4333,49.87,69,0,14.97,clear sky
369,Mount Gambier,AU,-37.8333,140.7667,44.51,87,75,23.02,light intensity shower rain
370,Kumbo,CM,6.2,10.6667,59.11,91,31,2.64,scattered clouds
371,Te Anau,NZ,-45.4167,167.7167,43.41,95,74,7.47,broken clouds
372,Bensonville,LR,6.4461,-10.6125,74.59,93,100,3.36,light rain
373,Lidzbark Warminski,PL,54.1259,20.5795,46.15,72,100,9.42,overcast clouds
374,Tocopilla,CL,-22.092,-70.1979,63.54,71,79,11.45,broken clouds
375,Neiafu,TO,-18.65,-173.9833,79.48,78,75,5.75,light rain
376,Holsted,DK,55.5109,8.9187,54.21,59,98,6.06,overcast clouds
377,Whitianga,NZ,-36.8333,175.7,57.02,64,54,10.38,broken clouds
378,Port Hedland,AU,-20.3167,118.5667,64.45,42,5,8.05,clear sky
379,Fairbanks,US,64.8378,-147.7164,46.31,69,75,5.75,broken clouds
380,Eureka,US,40.8021,-124.1637,72.68,74,56,9.42,broken clouds
381,Oliveira Do Hospital,PT,40.3618,-7.8601,59.25,80,10,0.65,clear sky
382,Phuket,TH,8.0,98.25,77.22,88,40,1.14,scattered clouds
383,Someshwar,IN,13.5,75.0667,76.37,97,88,1.95,overcast clouds
384,Wajid,SO,3.8093,43.2471,74.64,73,37,21.27,scattered clouds
385,Kyabe,TD,9.4515,18.9449,73.47,92,100,2.57,light rain
386,Rodas,CU,22.3408,-80.5572,89.8,54,91,9.75,overcast clouds
387,Olafsvik,IS,64.8945,-23.7142,48.4,88,100,19.39,light rain
388,Kavaratti,IN,10.5669,72.642,81.45,80,100,12.1,overcast clouds
389,Byron Bay,AU,-28.65,153.6167,72.05,73,4,11.14,clear sky
390,Bandarbeyla,SO,9.4942,50.8122,79.29,75,85,21.52,overcast clouds
391,Ferzikovo,RU,54.5191,36.7567,44.24,95,100,18.32,light rain
392,Norman Wells,CA,65.282,-126.8329,50.04,71,75,6.91,broken clouds
393,Freeport,US,40.6576,-73.5832,78.26,49,1,1.99,clear sky
394,Husavik,IS,66.0449,-17.3389,48.11,87,99,4.92,overcast clouds
395,Hoghilag,RO,46.2333,24.6167,54.97,85,36,2.17,scattered clouds
396,Seoul,KR,37.5683,126.9778,69.24,75,0,10.36,clear sky
397,Senneterre,CA,48.3835,-77.2328,68.22,54,5,6.29,clear sky
398,Khandyga,RU,62.6667,135.6,33.26,99,100,5.17,snow
399,Trinidad,BO,-14.8333,-64.9,89.58,58,75,3.44,smoke
400,Sao Joao Da Barra,BR,-21.6403,-41.0511,75.29,87,10,10.11,clear sky
401,Asfi,MA,32.2994,-9.2372,69.31,81,46,11.95,scattered clouds
402,Kaoma,ZM,-14.7833,24.8,73.6,29,2,11.27,clear sky
403,Korla,CN,41.7597,86.1469,72.5,23,0,3.49,clear sky
404,Pangody,RU,65.85,74.4859,36.7,96,100,15.86,overcast clouds
405,Coos Bay,US,43.3665,-124.2179,70.32,71,1,11.5,clear sky
406,Micheweni,TZ,-4.9667,39.8333,75.94,83,1,13.76,clear sky
407,Litovko,RU,49.2361,135.1742,46.65,67,0,8.41,clear sky
408,Mayo,US,38.8876,-76.5119,82.11,55,1,8.01,clear sky
409,Xining,CN,36.6167,101.7667,44.31,74,4,2.68,clear sky
410,Boke,GN,10.9409,-14.2967,75.7,95,99,1.99,overcast clouds
411,Roma,US,43.2128,-75.4557,71.74,55,20,5.75,few clouds
412,Krasnogorsk,RU,55.8225,37.3181,41.34,87,75,20.13,light intensity shower rain
413,Northam,GB,51.0333,-4.2167,59.67,82,2,7.27,clear sky
414,Shaowu,CN,27.3409,117.4831,74.95,91,9,2.08,clear sky
415,Vilyuysk,RU,63.7553,121.6247,24.42,97,10,4.76,clear sky
416,Alofi,NU,-19.0595,-169.9187,75.09,94,0,13.8,light rain
417,Morgan City,US,29.6994,-91.2068,87.8,70,1,8.05,clear sky
418,Luau,AO,-10.7073,22.2247,72.23,60,65,5.44,broken clouds
419,Kenai,US,60.5544,-151.2583,56.03,57,1,9.22,clear sky
420,Poladpur,IN,17.9802,73.466,73.98,97,93,1.05,overcast clouds
421,Lufilufi,WS,-13.8745,-171.5986,85.78,68,12,6.89,few clouds
422,Carutapera,BR,-1.195,-46.02,78.93,79,81,8.34,broken clouds
423,San Jose,US,37.3394,-121.895,82.27,45,75,8.01,broken clouds
424,Altay,CN,47.8667,88.1167,61.14,47,86,2.13,overcast clouds
425,Ulladulla,AU,-35.35,150.4667,66.87,46,0,9.01,clear sky
426,Visnes,NO,59.3556,5.2242,56.57,62,0,14.97,clear sky
427,Kieta,PG,-6.2167,155.6333,81.52,80,95,4.43,light rain
428,Chekhov,RU,55.1431,37.4711,41.23,95,100,16.87,moderate rain
429,Angoram,PG,-4.0625,144.0661,75.15,96,99,2.62,overcast clouds
430,Sovetskiy,RU,61.3614,63.5842,35.46,97,100,11.7,overcast clouds
431,Yingcheng,CN,30.95,113.55,66.25,95,100,4.32,light rain
432,Vanimo,PG,-2.6741,141.3028,78.87,81,100,3.18,moderate rain
433,Teknaf,BD,20.8624,92.3058,76.96,93,100,5.14,overcast clouds
434,Dubbo,AU,-32.25,148.6167,46.53,81,0,4.61,clear sky
435,Zaragoza,ES,41.6561,-0.8773,64.85,61,0,5.99,clear sky
436,Kemin,KG,42.7846,75.6892,54.54,39,1,2.77,clear sky
437,Mackenzie,CA,55.2999,-123.1698,50.22,81,90,8.05,overcast clouds
438,Lokosovo,RU,61.1333,74.8167,34.92,97,100,4.79,light rain
439,Baiao,BR,-2.7906,-49.6717,80.08,71,92,4.05,overcast clouds
440,Karratha,AU,-20.7377,116.8463,74.19,31,1,10.51,clear sky
441,Parabel,RU,58.6978,81.4825,35.11,97,99,7.4,overcast clouds
442,Santander Jimenez,MX,24.2167,-98.4667,94.59,38,0,8.37,clear sky
443,Albanel,CA,48.8832,-72.4487,62.08,55,52,4.61,broken clouds
444,Esperantina,BR,-3.9017,-42.2336,85.01,51,78,10.36,broken clouds
445,Inhambane,MZ,-23.865,35.3833,66.34,68,0,10.31,clear sky
446,Konevo,RU,62.1215,39.3192,37.6,86,89,5.44,overcast clouds
447,Sauce,UY,-34.6469,-56.0628,66.13,87,100,9.15,moderate rain
448,Saint-Augustin,CA,51.226,-58.6502,53.82,44,6,12.3,clear sky
449,Petrovskoye,RU,57.0104,39.2693,40.75,66,100,14.0,overcast clouds
450,Samarai,PG,-10.6167,150.6667,78.71,88,100,15.01,light rain
451,Sao Felix Do Xingu,BR,-6.6447,-51.995,83.46,42,53,2.1,broken clouds
452,Albury,AU,-36.0833,146.9167,54.01,82,90,9.22,light rain
453,Sokoto,NG,13.0609,5.239,77.11,71,62,3.98,light rain
454,Teya,RU,60.3778,92.6267,39.29,96,75,4.61,broken clouds
455,Alghero,IT,40.5589,8.3181,69.89,68,0,5.75,clear sky
456,Bayeux,BR,-7.125,-34.9322,77.63,78,20,10.36,few clouds
457,Tongliao,CN,43.6125,122.2653,53.42,82,100,10.33,moderate rain
458,Chocen,CZ,50.0016,16.223,51.12,85,18,2.57,few clouds
459,Xai-Xai,MZ,-25.0519,33.6442,63.01,66,0,12.86,clear sky
460,Asyut,EG,27.181,31.1837,84.38,27,2,4.88,clear sky
461,Pangnirtung,CA,66.1451,-65.7125,33.19,76,95,11.16,overcast clouds
462,Kutum,SD,14.2,24.6667,79.59,37,42,7.36,scattered clouds
463,Sungairaya,ID,0.7,108.9,77.5,86,96,7.92,overcast clouds
464,Luang Prabang,LA,19.8856,102.1347,71.26,100,99,1.03,overcast clouds
465,Tchaourou,BJ,8.8865,2.5975,73.18,93,58,4.12,broken clouds
466,Vestmanna,FO,62.1564,-7.1664,49.12,100,75,9.22,mist
467,Moose Factory,CA,51.2585,-80.6094,73.4,40,75,14.97,broken clouds
468,Zonguldak,TR,41.25,31.8333,58.17,86,7,4.85,clear sky
469,Carballo,ES,43.213,-8.691,61.9,91,63,4.27,broken clouds
470,Naron,ES,43.5167,-8.1528,63.03,83,80,6.49,broken clouds
471,North Bend,US,43.4065,-124.2243,70.25,71,1,11.5,clear sky
472,Minsk,BY,53.9,27.5667,44.35,96,100,13.38,overcast clouds
473,Mayya,RU,61.7333,130.2811,34.92,87,94,8.43,overcast clouds
474,Dubti,ET,11.7361,41.0853,88.75,41,21,11.79,few clouds
475,Izhma,RU,65.0083,53.9113,37.15,72,67,9.1,broken clouds
476,Srandakan,ID,-7.9386,110.2506,74.82,89,70,7.18,broken clouds
477,Beloha,MG,-25.1667,45.05,59.85,69,2,8.75,clear sky
478,Nago,JP,26.5881,127.9761,77.85,68,54,1.48,broken clouds
479,Morehead,US,37.2711,-87.1764,74.98,90,90,5.75,overcast clouds
480,Caravelas,BR,-17.7125,-39.2481,72.48,79,26,6.93,scattered clouds
481,Havelock,US,34.8791,-76.9013,84.43,70,34,1.01,scattered clouds
482,Frontignan,FR,43.4485,3.754,66.34,68,13,14.29,few clouds
483,Wasilla,US,61.5814,-149.4394,57.94,51,1,0.0,clear sky
484,Olga,RU,43.7444,135.2892,54.88,76,40,3.6,scattered clouds
485,Valparaiso,CL,-33.0393,-71.6273,62.24,61,40,11.5,scattered clouds
486,Half Moon Bay,US,37.4636,-122.4286,80.89,66,20,1.01,few clouds
487,Lazaro Cardenas,MX,17.9583,-102.2,85.66,69,83,6.69,broken clouds
488,Dolores,AR,-36.3132,-57.6792,57.9,93,100,9.66,overcast clouds
489,Artesia,US,33.8658,-118.0831,93.72,61,1,5.01,clear sky
490,Nicoya,CR,10.1483,-85.452,89.15,80,63,3.58,broken clouds
491,Aykhal,RU,66.0,111.5,27.91,85,94,5.77,overcast clouds
492,Marawi,PH,7.9986,124.2928,65.64,96,100,1.36,overcast clouds
493,Moyamba,SL,8.1667,-12.4333,73.8,97,96,2.04,overcast clouds
494,Garissa,KE,-0.4536,39.6401,74.35,73,0,18.41,clear sky
495,Praia,CV,14.9215,-23.5087,79.34,94,20,11.5,few clouds
496,Bhadra,IN,29.1167,75.1667,83.44,70,10,8.86,clear sky
497,Nanortalik,GL,60.1432,-45.2371,37.76,87,51,9.62,broken clouds
498,Lodja,CD,-3.4833,23.4333,69.67,91,98,0.11,overcast clouds
499,Angoche,MZ,-16.2325,39.9086,70.88,60,43,9.6,scattered clouds
500,Portland,US,45.5234,-122.6762,67.73,82,75,1.01,broken clouds
501,Muros,ES,42.7762,-9.0603,64.24,88,52,10.85,broken clouds
502,Barahona,DO,18.2085,-71.1008,87.62,62,40,11.5,scattered clouds
503,Tomatlan,MX,19.9333,-105.25,78.98,91,100,5.41,overcast clouds
504,Bathsheba,BB,13.2167,-59.5167,86.61,62,20,9.22,few clouds
505,Chegdomyn,RU,51.1167,133.0167,38.95,83,0,2.75,clear sky
506,Severnyy,RU,50.677,36.5532,51.84,100,90,2.24,fog
507,Novobiryusinskiy,RU,56.9578,97.7076,51.28,95,100,3.22,light rain
508,Victor Harbor,AU,-35.5667,138.6167,53.8,66,67,18.75,broken clouds
509,Grand Baie,MU,-20.0182,57.5802,70.27,67,94,3.0,overcast clouds
510,Markova,UA,48.6758,24.4138,47.46,83,100,8.3,overcast clouds
511,Sola,VU,-13.8833,167.55,81.27,78,90,8.05,overcast clouds
512,Tokat,TR,40.4167,36.5833,52.47,74,12,2.26,few clouds
513,Dudinka,RU,69.4058,86.1778,29.23,87,100,19.77,overcast clouds
514,Torquay,GB,50.4638,-3.5143,55.85,88,36,1.01,scattered clouds
515,Nhulunbuy,AU,-12.2333,136.7667,77.61,73,75,6.91,broken clouds
516,Naukot,PK,24.8587,69.4024,84.2,73,59,16.93,very heavy rain
517,Bosansko Grahovo,BA,44.1794,16.3639,57.4,91,75,3.38,broken clouds
518,Salalah,OM,17.0151,54.0924,79.54,82,57,3.4,broken clouds
519,Mitzic,GA,0.7821,11.549,69.57,97,100,0.96,light rain
520,Petrovsk-Zabaykalskiy,RU,51.273,108.843,47.08,95,52,2.59,broken clouds
521,Miri,MY,4.4148,114.0089,78.94,94,40,4.61,heavy intensity rain
522,Namatanai,PG,-3.6667,152.4333,81.68,72,71,3.36,broken clouds
523,Vila,PT,42.0304,-8.1588,53.33,82,46,4.79,scattered clouds
524,Zavyalovo,RU,54.5053,82.4484,42.62,78,100,10.6,overcast clouds
525,Balaipungut,ID,1.05,101.2833,72.68,97,100,3.18,light rain
526,Doha,QA,25.2867,51.5333,89.58,72,0,3.44,clear sky
527,Nicolas Bravo,MX,18.45,-88.9167,87.24,61,88,5.68,overcast clouds
528,Morada Nova,BR,-5.1067,-38.3725,79.93,63,89,11.54,overcast clouds
529,Sarospatak,HU,48.3167,21.5833,51.51,83,71,4.61,broken clouds
530,Sao Miguel Do Araguaia,BR,-13.275,-50.1628,89.78,15,9,4.63,clear sky
531,Wuda,CN,39.4994,106.7117,60.51,62,22,2.84,few clouds
532,Koslan,RU,63.4564,48.8989,37.76,69,100,6.76,overcast clouds
533,Sur,OM,22.5667,59.5289,81.9,75,73,13.09,broken clouds
534,Latung,PH,5.5,120.8833,83.01,73,97,4.9,light rain
535,Staryy Nadym,RU,65.6118,72.6842,35.92,97,100,17.18,light rain
536,Bahia Blanca,AR,-38.7196,-62.2724,55.38,98,100,8.57,moderate rain
537,Walvis Bay,NA,-22.9575,14.5053,56.08,76,4,3.44,clear sky
538,Gorgan,IR,36.8387,54.4348,67.96,88,0,0.0,clear sky
539,Belmonte,BR,-15.8631,-38.8828,77.5,78,33,7.78,scattered clouds
540,Najran,SA,17.4924,44.1277,83.05,17,4,3.58,clear sky
541,Imphal,IN,24.8167,93.95,68.41,97,79,2.28,broken clouds
542,San Vicente,AR,-26.6167,-54.1333,77.54,54,100,2.37,overcast clouds
543,Riyadh,SA,24.6877,46.7219,84.34,21,0,5.68,clear sky
544,Narok,KE,-1.0783,35.8601,60.91,62,78,4.38,broken clouds
545,Kerewan,GM,13.4898,-16.0888,75.31,88,94,5.79,overcast clouds
546,Tombouctou,ML,20.0,-3.0,93.16,13,6,2.82,clear sky
547,Berdigestyakh,RU,62.0989,126.6992,29.86,87,43,8.59,scattered clouds
548,Ginir,ET,7.1333,40.7,62.69,74,71,4.59,light rain
549,Conakry,GN,9.538,-13.6773,80.26,80,100,6.93,overcast clouds
550,Nova Olimpia,BR,-14.7972,-57.2881,91.45,14,3,4.29,clear sky
551,Avera,US,33.194,-82.5271,84.88,61,100,9.66,overcast clouds
552,Shieli,KZ,44.1667,66.75,55.04,24,0,15.12,clear sky
553,Fairmont,US,39.4851,-80.1426,85.37,58,22,5.7,few clouds
554,Solano,US,38.2333,-121.9511,85.1,34,1,12.66,clear sky
555,Saquena,PE,-4.6667,-73.5167,87.12,54,80,2.28,broken clouds
556,Kasempa,ZM,-13.4584,25.8338,71.31,33,6,7.34,clear sky
557,Makakilo City,US,21.3469,-158.0858,82.72,65,90,8.05,overcast clouds
558,Camopi,GF,3.1655,-52.3158,80.89,68,98,4.61,overcast clouds
559,Sao Desiderio,BR,-12.3633,-44.9733,82.15,17,4,4.94,clear sky
560,Yaring,TH,6.8662,101.3689,77.22,87,100,8.55,overcast clouds
561,Pisco,PE,-13.7,-76.2167,66.25,68,0,18.41,clear sky
562,Birmitrapur,IN,22.4,84.7667,72.9,96,73,2.01,broken clouds
563,Boo,SE,59.3333,18.2833,50.77,67,90,5.75,overcast clouds
564,Hamilton,US,39.1834,-84.5333,86.59,54,1,1.99,clear sky
565,Cervo,ES,43.6702,-7.4101,58.96,76,79,7.34,broken clouds
566,Marsh Harbour,BS,26.5412,-77.0636,83.73,68,78,8.75,broken clouds
567,Fakel,RU,57.6325,53.0252,36.59,66,100,5.19,overcast clouds
568,Hami,CN,42.8,93.45,72.52,19,43,2.66,scattered clouds
569,Erlangen,DE,49.5897,11.0039,54.59,82,75,5.75,broken clouds
570,Lensk,RU,60.7253,114.9278,43.18,83,100,3.09,overcast clouds
571,Miraflores,MX,19.2167,-98.8083,66.85,75,88,4.79,overcast clouds
572,Rocha,UY,-34.4833,-54.3333,60.62,97,100,8.5,overcast clouds
573,Savannakhet,LA,16.566,104.751,74.07,90,89,4.43,overcast clouds
574,Salamiyah,SY,35.0113,37.0532,72.39,46,0,5.73,clear sky
575,Naze,JP,28.3667,129.4833,70.72,75,26,3.0,scattered clouds
576,Chipata,ZM,-13.6333,32.65,62.24,63,37,4.41,scattered clouds
577,Bosaso,SO,11.2842,49.1816,88.23,63,2,2.89,clear sky
578,Lasa,IT,46.6166,10.7002,53.02,99,100,5.39,overcast clouds
579,Tecoanapa,MX,16.5167,-98.75,84.94,67,64,6.64,broken clouds
580,Maningrida,AU,-12.0667,134.2667,69.66,82,100,9.13,overcast clouds
581,Kiunga,PG,-6.1219,141.2906,73.44,100,100,0.31,overcast clouds
582,Port Macquarie,AU,-31.4333,152.9167,49.96,44,0,3.85,clear sky
583,Pacific Grove,US,36.6177,-121.9166,83.57,68,1,5.01,clear sky
584,Alexandria,EG,31.2156,29.9553,80.56,78,0,5.75,clear sky
585,Baoqing,CN,46.3317,132.2111,44.13,84,83,4.05,broken clouds
586,Biloela,AU,-24.4167,150.5,66.65,65,0,3.24,clear sky
587,Shahapur,IN,19.45,73.3333,78.28,96,86,2.64,overcast clouds
588,Whitehorse,CA,60.7161,-135.0538,51.1,61,40,5.75,scattered clouds
589,Nuoro,IT,40.3211,9.3297,68.99,76,37,6.8,scattered clouds
590,Araouane,ML,18.9048,-3.5265,97.9,13,7,8.81,clear sky
591,Chalus,IR,36.655,51.4204,71.06,73,75,2.3,broken clouds
592,Nioro,GM,13.35,-15.75,78.8,87,100,4.21,overcast clouds
593,Takab,IR,36.4009,47.1133,57.81,23,0,2.35,clear sky
594,Bumba,CD,2.1833,22.4667,72.18,93,14,3.0,few clouds
595,Sorata,BO,-15.7667,-68.6333,49.87,78,40,8.28,scattered clouds
596,Karasjok,NO,69.4719,25.5112,39.31,89,100,9.86,overcast clouds
597,Sarangani,PH,5.4033,125.4636,77.77,84,100,15.82,overcast clouds
598,Tuatapere,NZ,-46.1333,167.6833,50.83,74,43,9.42,scattered clouds
599,Ishigaki,JP,24.3448,124.1572,80.73,89,20,2.3,few clouds
600,Popondetta,PG,-8.7537,148.2534,73.72,95,100,1.07,overcast clouds
601,Ahipara,NZ,-35.1667,173.1667,59.45,70,18,7.02,few clouds
602,Pineville,US,31.3224,-92.4343,84.18,91,20,8.05,mist
603,Codrington,AU,-38.2667,141.9667,47.17,81,46,21.94,scattered clouds
604,Viedma,AR,-40.8135,-62.9967,52.97,85,84,11.56,broken clouds
605,Port Lincoln,AU,-34.7333,135.8667,53.15,59,82,24.11,broken clouds
606,Hobyo,SO,5.3505,48.5268,76.96,84,97,25.59,overcast clouds
607,Cabedelo,BR,-6.9811,-34.8339,77.67,71,65,15.52,broken clouds
608,Sandnessjoen,NO,66.0217,12.6316,51.78,67,89,17.65,overcast clouds
609,Malibu,US,34.005,-118.8101,91.87,70,30,1.99,scattered clouds
610,Turukhansk,RU,65.8167,87.9833,38.26,90,98,2.42,overcast clouds
611,Junction City,US,39.0286,-96.8314,92.55,51,20,5.99,few clouds
612,Menomonie,US,44.8755,-91.9193,89.17,44,18,17.27,few clouds
613,Shu,KZ,43.5983,73.7614,57.34,37,37,9.28,scattered clouds
614,San Carlos De Bariloche,AR,-41.1456,-71.3082,49.75,37,20,19.57,few clouds
615,Cacu,BR,-18.5567,-51.1308,87.37,18,72,3.51,broken clouds
616,Traralgon,AU,-38.1833,146.5333,52.18,72,74,8.01,broken clouds
617,Abaza,RU,52.655,90.0928,50.61,88,100,2.44,overcast clouds
618,Maltahohe,NA,-24.8333,16.9833,55.62,32,0,8.12,clear sky
619,Margate,GB,51.3813,1.3862,63.3,92,100,8.01,overcast clouds
620,Labuhan,ID,-6.8844,112.2051,76.66,78,33,8.88,scattered clouds
621,Imeni Zhelyabova,RU,58.9544,36.5956,37.42,82,99,10.67,overcast clouds
622,Kendari,ID,-3.945,122.4989,74.73,95,100,2.77,overcast clouds
623,Cap Malheureux,MU,-19.9842,57.6142,70.29,67,95,3.0,overcast clouds
624,Krasnoborsk,RU,61.5598,45.934,37.51,75,100,3.83,overcast clouds
625,Mago,RU,53.2514,140.1822,43.12,67,0,3.91,clear sky
626,Muroto,JP,33.2833,134.15,71.64,75,66,11.12,broken clouds
627,Ryotsu,JP,38.0833,138.4333,62.56,65,12,12.01,few clouds
628,Gweru,ZW,-19.45,29.8167,57.69,54,0,5.64,clear sky
629,Haysville,US,37.5645,-97.3523,92.79,41,1,5.01,clear sky
630,Soe,ID,-9.8607,124.284,64.31,87,68,5.61,broken clouds
631,Warrnambool,AU,-38.3833,142.4833,49.8,76,63,24.65,broken clouds
632,Agirish,RU,61.9247,63.0231,34.5,95,100,10.94,overcast clouds
633,Chapleau,CA,47.8405,-83.4034,73.49,40,1,11.5,clear sky
634,Alice,US,27.7523,-98.0697,98.17,38,20,6.91,few clouds
635,Sheridan,US,44.8333,-106.9173,64.58,77,90,1.99,light rain
636,Brownsville,US,25.9018,-97.4975,95.11,58,1,7.0,clear sky
637,Ulaanbaatar,MN,47.9077,106.8832,50.13,87,75,0.0,broken clouds
638,Katangli,RU,51.7102,143.2326,46.99,67,88,11.43,overcast clouds
639,Iisalmi,FI,63.5592,27.1907,44.62,76,100,3.53,overcast clouds
640,Culiacan,MX,24.7994,-107.3897,91.63,71,28,9.17,scattered clouds
641,Brewster,US,41.3973,-73.6171,74.43,69,9,5.35,clear sky
642,Simplicio Mendes,BR,-7.8539,-41.9103,84.16,26,66,6.15,broken clouds
643,Thinadhoo,MV,0.5333,72.9333,82.4,76,80,6.8,broken clouds
644,Muyezerskiy,RU,63.9333,31.65,37.33,84,85,4.88,overcast clouds
645,Baykit,RU,61.67,96.37,44.62,98,100,2.13,light rain
646,Dukat,RU,62.55,155.55,37.87,97,100,3.53,light rain
647,Chimbote,PE,-9.0853,-78.5783,63.37,75,37,11.7,scattered clouds
648,Santa Rita,BR,-7.1139,-34.9781,77.67,78,20,10.36,few clouds
649,Jinan,CN,36.6683,116.9972,61.95,97,100,10.78,light rain
650,Tignere,CM,7.3667,12.65,64.78,92,60,1.45,broken clouds
651,Gornyye Klyuchi,RU,45.25,133.5,45.64,87,100,1.92,overcast clouds
652,Abu Zabad,SD,12.35,29.25,77.94,68,94,5.48,overcast clouds
653,Maslova Pristan,RU,50.4587,36.7408,54.0,90,13,5.57,few clouds
654,Siniscola,IT,40.5719,9.6922,67.55,69,36,9.44,scattered clouds
655,Changying,CN,52.8733,123.3213,38.3,81,5,5.7,clear sky
656,Molina,CL,-35.1167,-71.2833,58.73,47,40,8.05,scattered clouds
657,Komsomolskiy,UZ,40.4272,71.7189,68.72,37,0,9.22,clear sky
658,Siguiri,GN,11.6667,-9.5,77.05,85,96,2.08,light rain
659,Trairi,BR,-3.2778,-39.2689,78.6,75,71,12.37,broken clouds
660,Dwarka,IN,22.2394,68.9678,81.7,82,2,12.84,clear sky
661,Dire,ML,12.2833,-10.9667,74.62,94,96,2.37,light rain
662,Fresno,US,36.6666,-119.8343,85.24,41,40,13.8,scattered clouds
663,Gairo,IT,39.8497,9.5047,67.21,65,20,6.22,few clouds
664,Broken Hill,AU,-31.95,141.4333,47.91,40,0,5.75,clear sky
665,Matay,EG,28.419,30.7792,81.0,35,0,15.93,clear sky
666,Catemaco,MX,18.4167,-95.1167,81.73,76,46,2.91,scattered clouds
667,Nuuk,GL,64.1835,-51.7216,36.66,68,96,13.94,overcast clouds
668,Olinda,BR,-8.0089,-34.8553,76.73,69,40,8.05,scattered clouds
669,Ullapool,GB,57.8987,-5.1604,54.36,92,0,5.08,clear sky
670,Dalvik,IS,65.9702,-18.5286,48.13,88,100,3.65,overcast clouds
671,Ugoofaaru,MV,5.6667,73.0,82.08,79,25,10.49,scattered clouds
672,Sinnamary,GF,5.3833,-52.95,80.91,79,85,10.2,overcast clouds
673,Filadelfia,US,39.9523,-75.1638,80.28,40,1,3.0,clear sky
674,Bayburt,TR,40.2589,40.2278,52.18,70,1,0.34,clear sky
675,Bolgar,RU,54.95,49.0667,33.71,65,82,8.05,broken clouds
676,Nyurba,RU,63.2842,118.3319,23.18,91,9,2.17,clear sky
677,Znamenskoye,RU,57.1281,73.8282,34.48,98,100,9.57,light rain
678,Aitape,PG,-3.1374,142.3475,79.0,81,99,4.92,light rain
679,La Plata,AR,-34.9215,-57.9545,66.11,91,100,8.37,overcast clouds
680,Hovd,MN,48.0056,91.6419,57.07,37,8,6.73,clear sky
681,Ayan,RU,56.45,138.1667,44.35,54,1,12.17,clear sky
682,Quelimane,MZ,-17.8786,36.8883,64.35,88,0,0.0,clear sky
683,Alice Springs,AU,-23.7,133.8833,62.15,72,74,5.75,broken clouds
684,Binga,ZW,-17.6203,27.3414,70.84,55,0,5.55,clear sky
685,Nebolchi,RU,59.1239,33.3454,40.15,76,100,10.6,overcast clouds
686,Ejura,GH,7.3856,-1.3562,73.31,93,66,3.78,light rain
687,Sorkjosen,NO,69.8,20.9333,44.47,79,92,12.68,overcast clouds
688,Boa Vista,BR,2.8197,-60.6733,80.58,83,75,6.91,broken clouds
689,Svetlogorsk,BY,52.6333,29.7333,48.51,97,100,10.85,overcast clouds
690,Dalnerechensk,RU,45.9339,133.7225,44.58,82,80,2.17,broken clouds
